{
"type": "FeatureCollection",
"name": "159_2_sat_points",
"crs": { "type": "name", "properties": { "name": "urn:ogc:def:crs:OGC:1.3:CRS84" } },
"features": [
{ "type": "Feature", "properties": { "name": "Östemar badstrand", "lat": 58.887546, "lon": 18.137476, "image": "http://commons.wikimedia.org/wiki/Special:FilePath/SATN%C3%A5ttar%C3%B6%202025%20april%20%C3%96stemar%20badplats.jpg", "image_thumb": null, "qid": "Q134519154", "website": null }, "geometry": { "type": "Point", "coordinates": [ 18.137476, 58.887546 ] } },
{ "type": "Feature", "properties": { "name": "Nåttarö vandrarhem", "lat": 58.885759, "lon": 18.134744, "image": "http://commons.wikimedia.org/wiki/Special:FilePath/SATN%C3%A5ttar%C3%B6%202025%20april%20%28227%29.jpg", "image_thumb": null, "qid": "Q134519179", "website": "https://nattaro.se/boende/vandrarhemmet/" }, "geometry": { "type": "Point", "coordinates": [ 18.134744, 58.885759 ] } },
{ "type": "Feature", "properties": { "name": "Nåttarö vandrarhem grillplats", "lat": 58.885691, "lon": 18.134411, "image": "http://commons.wikimedia.org/wiki/Special:FilePath/SATN%C3%A5ttar%C3%B6%202025%20april%20%28227%29.jpg", "image_thumb": null, "qid": "Q134519257", "website": null }, "geometry": { "type": "Point", "coordinates": [ 18.134411, 58.885691 ] } },
{ "type": "Feature", "properties": { "name": "Möjaström brygga", "lat": 59.404, "lon": 18.874724, "image": "http://commons.wikimedia.org/wiki/Special:FilePath/SAT%20M%C3%B6ja%20April%2001.jpg", "image_thumb": null, "qid": "Q134521444", "website": null }, "geometry": { "type": "Point", "coordinates": [ 18.874724, 59.404 ] } },
{ "type": "Feature", "properties": { "name": "Bergs brygga", "lat": 59.406112, "lon": 18.888765, "image": "http://commons.wikimedia.org/wiki/Special:FilePath/M%C3%B6ja%20D81%201468%20%2836347222472%29.jpg", "image_thumb": null, "qid": "Q134522797", "website": null }, "geometry": { "type": "Point", "coordinates": [ 18.888765, 59.406112 ] } },
{ "type": "Feature", "properties": { "name": "Ramsmora brygga", "lat": 59.423746, "lon": 18.909689, "image": "http://commons.wikimedia.org/wiki/Special:FilePath/SAT%20M%C3%B6ja%202025%20vandring%20april%2009.jpg", "image_thumb": null, "qid": "Q134522835", "website": null }, "geometry": { "type": "Point", "coordinates": [ 18.909689, 59.423746 ] } },
{ "type": "Feature", "properties": { "name": "Långviks brygga", "lat": 59.442339, "lon": 18.920833, "image": "http://commons.wikimedia.org/wiki/Special:FilePath/Viber%C3%B6%20L%C3%A5ngvik%20December%202012.jpg", "image_thumb": null, "qid": "Q134523091", "website": null }, "geometry": { "type": "Point", "coordinates": [ 18.920833, 59.442339 ] } },
{ "type": "Feature", "properties": { "name": "Hotell Furusund", "lat": 59.659002, "lon": 18.916161, "image": "http://commons.wikimedia.org/wiki/Special:FilePath/D810%200283%20%2814538737880%29.jpg", "image_thumb": null, "qid": "Q134523792", "website": "https://hotellfurusund.se/" }, "geometry": { "type": "Point", "coordinates": [ 18.916161, 59.659002 ] } },
{ "type": "Feature", "properties": { "name": "Monte Bello", "lat": 59.666253558999998, "lon": 18.918992839000001, "image": "http://commons.wikimedia.org/wiki/Special:FilePath/SAT%20Furusund%20Monte%20Bello%20%282%29.jpg", "image_thumb": null, "qid": "Q134523870", "website": null }, "geometry": { "type": "Point", "coordinates": [ 18.918992839, 59.666253559 ] } },
{ "type": "Feature", "properties": { "name": "Optiska telegrafen i Furusund", "lat": 59.6585153, "lon": 18.9142922, "image": "http://commons.wikimedia.org/wiki/Special:FilePath/TEKA0140549.jpg", "image_thumb": null, "qid": "Q134523881", "website": "https://www.furusund.se/optiska-telegrafen-2/" }, "geometry": { "type": "Point", "coordinates": [ 18.9142922, 59.6585153 ] } },
{ "type": "Feature", "properties": { "name": "Duvkällan, Furusund", "lat": 59.665792, "lon": 18.921431, "image": "http://commons.wikimedia.org/wiki/Special:FilePath/Duvk%C3%A4llan%20Furusund.jpg", "image_thumb": null, "qid": "Q134523918", "website": null }, "geometry": { "type": "Point", "coordinates": [ 18.921431, 59.665792 ] } },
{ "type": "Feature", "properties": { "name": "kungaristningen", "lat": 59.660221, "lon": 18.917151, "image": null, "image_thumb": null, "qid": "Q134526525", "website": null }, "geometry": { "type": "Point", "coordinates": [ 18.917151, 59.660221 ] } },
{ "type": "Feature", "properties": { "name": "Furusunds brygga", "lat": 59.658051, "lon": 18.91662, "image": "http://commons.wikimedia.org/wiki/Special:FilePath/Furusunds%20brygga.jpg", "image_thumb": null, "qid": "Q134527130", "website": null }, "geometry": { "type": "Point", "coordinates": [ 18.91662, 59.658051 ] } },
{ "type": "Feature", "properties": { "name": "Yxlö brygga", "lat": 59.632183, "lon": 18.863863, "image": "http://commons.wikimedia.org/wiki/Special:FilePath/SAT%20Yxlan%202025%20maj%205%20-%20Yxl%C3%B6%20Brygga%20%282%29.jpg", "image_thumb": null, "qid": "Q134527143", "website": null }, "geometry": { "type": "Point", "coordinates": [ 18.863863, 59.632183 ] } },
{ "type": "Feature", "properties": { "name": "Köpmanholms Lanthandel och Grill", "lat": 59.659515, "lon": 18.932257, "image": "http://commons.wikimedia.org/wiki/Special:FilePath/SAT%20Yxlan%20K%C3%B6pmanholms%20lanthandel.jpg", "image_thumb": null, "qid": "Q134527248", "website": null }, "geometry": { "type": "Point", "coordinates": [ 18.932257, 59.659515 ] } },
{ "type": "Feature", "properties": { "name": "Ornö Brödbod Deli", "lat": 59.052284, "lon": 18.433279, "image": "http://commons.wikimedia.org/wiki/Special:FilePath/Br%C3%B6dboden%20Kyrkviken%20Orn%C3%B6.jpg", "image_thumb": null, "qid": "Q134529043", "website": null }, "geometry": { "type": "Point", "coordinates": [ 18.433279, 59.052284 ] } },
{ "type": "Feature", "properties": { "name": "Ornö macken", "lat": 59.051773, "lon": 18.432768, "image": "http://commons.wikimedia.org/wiki/Special:FilePath/Gulf%20macken%20Kyrkviken%20Orn%C3%B6%20%281%29.jpg", "image_thumb": null, "qid": "Q134529162", "website": null }, "geometry": { "type": "Point", "coordinates": [ 18.432768, 59.051773 ] } },
{ "type": "Feature", "properties": { "name": "Svartsö lanthandel", "lat": 59.43805, "lon": 18.656619, "image": "http://commons.wikimedia.org/wiki/Special:FilePath/Svarts%C3%B6%20Lanthandel.jpg", "image_thumb": null, "qid": "Q134529240", "website": "https://www.svartsolanthandel.se/" }, "geometry": { "type": "Point", "coordinates": [ 18.656619, 59.43805 ] } },
{ "type": "Feature", "properties": { "name": "Rånö livs", "lat": 58.91981, "lon": 18.176656, "image": "http://commons.wikimedia.org/wiki/Special:FilePath/R%C3%A5n%C3%B6%20Livs.jpg", "image_thumb": null, "qid": "Q134529646", "website": "https://rano.se/affar/" }, "geometry": { "type": "Point", "coordinates": [ 18.176656, 58.91981 ] } },
{ "type": "Feature", "properties": { "name": "Coop Ingmarsö", "lat": 59.46616, "lon": 18.751834, "image": "http://commons.wikimedia.org/wiki/Special:FilePath/Coop%20Ingmars%C3%B6.jpg", "image_thumb": null, "qid": "Q134529993", "website": "https://www.coop.se/butiker-erbjudanden/coop/coop-ingmarso/" }, "geometry": { "type": "Point", "coordinates": [ 18.751834, 59.46616 ] } },
{ "type": "Feature", "properties": { "name": "Ingmarsö krog", "lat": 59.465565028999997, "lon": 18.751336369000001, "image": "http://commons.wikimedia.org/wiki/Special:FilePath/SAT%20Ingmars%C3%B6%2020250811%20ro%20vandra%2004.jpg", "image_thumb": null, "qid": "Q134531012", "website": "https://ingmarsokrog.com/" }, "geometry": { "type": "Point", "coordinates": [ 18.751336369, 59.465565029 ] } },
{ "type": "Feature", "properties": { "name": "Vänsvik udd, Nåttarö grillplats", "lat": 58.866529, "lon": 18.131126, "image": "http://commons.wikimedia.org/wiki/Special:FilePath/SATN%C3%A5ttar%C3%B6%202025%20april%20grillplats%20V%C3%A4nviks%20udd%20%282%29.jpg", "image_thumb": null, "qid": "Q134537879", "website": null }, "geometry": { "type": "Point", "coordinates": [ 18.131126, 58.866529 ] } },
{ "type": "Feature", "properties": { "name": "Vänsviken, Nåttarö", "lat": 58.868225, "lon": 18.124339, "image": "http://commons.wikimedia.org/wiki/Special:FilePath/SATN%C3%A5ttar%C3%B6%202025%20april%20V%C3%A4nsvik%20%282%29.jpg", "image_thumb": null, "qid": "Q134537980", "website": "https://nattaro.se/aktiviteter/sol-och-bad" }, "geometry": { "type": "Point", "coordinates": [ 18.124339, 58.868225 ] } },
{ "type": "Feature", "properties": { "name": "Kayakomat Stockholms Skärgård Ornö", "lat": 59.051691, "lon": 18.432354, "image": "http://commons.wikimedia.org/wiki/Special:FilePath/Kayakomat%20Orn%C3%B6%20hembyggdsg%C3%A5rd.jpg", "image_thumb": null, "qid": "Q134539208", "website": "https://www.kayakomat.com/sv/location/62759be2e723075c0cc83b9e" }, "geometry": { "type": "Point", "coordinates": [ 18.432354, 59.051691 ] } },
{ "type": "Feature", "properties": { "name": "Ornö kyrka brygga", "lat": 59.052111, "lon": 18.433251, "image": "http://commons.wikimedia.org/wiki/Special:FilePath/Orn%C3%B6%20kyrka%20Ferry%20stop%2001.jpg", "image_thumb": null, "qid": "Q134539845", "website": null }, "geometry": { "type": "Point", "coordinates": [ 18.433251, 59.052111 ] } },
{ "type": "Feature", "properties": { "name": "Lidö kvarn", "lat": 59.770404, "lon": 19.079945, "image": "http://commons.wikimedia.org/wiki/Special:FilePath/Lid%C3%B6%20kvarn.JPG", "image_thumb": null, "qid": "Q134561120", "website": null }, "geometry": { "type": "Point", "coordinates": [ 19.079945, 59.770404 ] } },
{ "type": "Feature", "properties": { "name": "Arholma Nord Kajak", "lat": 59.86149, "lon": 19.123717, "image": "http://commons.wikimedia.org/wiki/Special:FilePath/SAT%20Arholma%2020250813%20vandringen%2008.jpg", "image_thumb": null, "qid": "Q134561810", "website": null }, "geometry": { "type": "Point", "coordinates": [ 19.123717, 59.86149 ] } },
{ "type": "Feature", "properties": { "name": "Landsorts gästhamn, hjärtstartare", "lat": 58.768584, "lon": 17.858155, "image": "http://commons.wikimedia.org/wiki/Special:FilePath/Landsort%20g%C3%A4sthamn%20AED.webp", "image_thumb": null, "qid": "Q134568948", "website": null }, "geometry": { "type": "Point", "coordinates": [ 17.858155, 58.768584 ] } },
{ "type": "Feature", "properties": { "name": "Norr Storsand grillplats", "lat": 58.877736, "lon": 18.135786, "image": "http://commons.wikimedia.org/wiki/Special:FilePath/SATN%C3%A5ttar%C3%B6%202025%20april%20SAT%20Storsand.jpg", "image_thumb": null, "qid": "Q134570185", "website": null }, "geometry": { "type": "Point", "coordinates": [ 18.135786, 58.877736 ] } },
{ "type": "Feature", "properties": { "name": "Nåttarö västra campingen grillplats", "lat": 58.876961, "lon": 18.106936, "image": "http://commons.wikimedia.org/wiki/Special:FilePath/SATN%C3%A5ttar%C3%B6%202025%20april%20grillplats.jpg", "image_thumb": null, "qid": "Q134570492", "website": "https://grillplatser.nu/Grillplats/Visa/Nattara-vastra-camping" }, "geometry": { "type": "Point", "coordinates": [ 18.106936, 58.876961 ] } },
{ "type": "Feature", "properties": { "name": "Svartsö skärgårdshotell och vandrarhem", "lat": 59.457522, "lon": 18.677283, "image": "http://commons.wikimedia.org/wiki/Special:FilePath/Svarts%C3%B6%20sk%C3%A4rg%C3%A5rdshotell%20vandrarhem%20%281%29.jpg", "image_thumb": null, "qid": "Q134571436", "website": "https://www.svartsonorra.se/boende/" }, "geometry": { "type": "Point", "coordinates": [ 18.677283, 59.457522 ] } },
{ "type": "Feature", "properties": { "name": "Svedtiljas Lotstornet", "lat": 58.74334, "lon": 17.86709, "image": "http://commons.wikimedia.org/wiki/Special:FilePath/Landsort%202012c.jpg", "image_thumb": null, "qid": "Q134572369", "website": "https://www.g-mo.se/hotell/" }, "geometry": { "type": "Point", "coordinates": [ 17.86709, 58.74334 ] } },
{ "type": "Feature", "properties": { "name": "Sandhamns seglarhotell", "lat": 59.287929, "lon": 18.918637, "image": "http://commons.wikimedia.org/wiki/Special:FilePath/Sandhamn%20Seglarhotellet.jpg", "image_thumb": null, "qid": "Q134572952", "website": "https://www.sandhamn.com/" }, "geometry": { "type": "Point", "coordinates": [ 18.918637, 59.287929 ] } },
{ "type": "Feature", "properties": { "name": "Storsand grillplats 1", "lat": 58.876015, "lon": 18.133114, "image": "http://commons.wikimedia.org/wiki/Special:FilePath/SATN%C3%A5ttar%C3%B6%202025%20april%20grillplats%20Storsand%20%284%29.jpg", "image_thumb": null, "qid": "Q134578274", "website": null }, "geometry": { "type": "Point", "coordinates": [ 18.133114, 58.876015 ] } },
{ "type": "Feature", "properties": { "name": "Grillplats Storsand", "lat": 58.877121, "lon": 18.133729, "image": "http://commons.wikimedia.org/wiki/Special:FilePath/SATN%C3%A5ttar%C3%B6%202025%20april%20Storsand%20grillplats%203.jpg", "image_thumb": null, "qid": "Q134578337", "website": null }, "geometry": { "type": "Point", "coordinates": [ 18.133729, 58.877121 ] } },
{ "type": "Feature", "properties": { "name": "Storsand Nåttarö grillplats", "lat": 58.876646, "lon": 18.133193, "image": "http://commons.wikimedia.org/wiki/Special:FilePath/SATN%C3%A5ttar%C3%B6%202025%20april%20grillplats%20Storsand%202.jpg", "image_thumb": null, "qid": "Q134579695", "website": "https://grillplatser.nu/Grillplats/Visa/Storsand-Nattaro" }, "geometry": { "type": "Point", "coordinates": [ 18.133193, 58.876646 ] } },
{ "type": "Feature", "properties": { "name": "Storsand grillplats 2 Nåttarö", "lat": 58.875992, "lon": 18.133978, "image": "http://commons.wikimedia.org/wiki/Special:FilePath/SATN%C3%A5ttar%C3%B6%202025%20april%20grillplats%20Storsand.jpg", "image_thumb": null, "qid": "Q134579808", "website": null }, "geometry": { "type": "Point", "coordinates": [ 18.133978, 58.875992 ] } },
{ "type": "Feature", "properties": { "name": "SAT grill södra Storsand Nåttarö", "lat": 58.8758738, "lon": 18.1339749, "image": "http://commons.wikimedia.org/wiki/Special:FilePath/SATN%C3%A5ttar%C3%B6%202025%20april%20SAT%20grill%20Storsand%20%282%29.jpg", "image_thumb": null, "qid": "Q134580000", "website": null }, "geometry": { "type": "Point", "coordinates": [ 18.1339749, 58.8758738 ] } },
{ "type": "Feature", "properties": { "name": "Fyrhistorisk utställning, Landsort", "lat": 58.739594, "lon": 17.86567, "image": "http://commons.wikimedia.org/wiki/Special:FilePath/Landsort%20Lighthouse%20August%202013%2009.jpg", "image_thumb": null, "qid": "Q134580057", "website": "https://fyr.org/nyheter/fyrutstallning-invigd.html" }, "geometry": { "type": "Point", "coordinates": [ 17.86567, 58.739594 ] } },
{ "type": "Feature", "properties": { "name": "Möja Outdoor", "lat": 59.406618514000002, "lon": 18.872265097, "image": null, "image_thumb": null, "qid": "Q134580561", "website": "https://mojaoutdoor.se/" }, "geometry": { "type": "Point", "coordinates": [ 18.872265097, 59.406618514 ] } },
{ "type": "Feature", "properties": { "name": "Ragnars kiosk", "lat": 59.479411, "lon": 18.812757, "image": "http://commons.wikimedia.org/wiki/Special:FilePath/Finnhamn%20Ragnars%20kiosk%20grillplatsen.jpg", "image_thumb": null, "qid": "Q134580641", "website": null }, "geometry": { "type": "Point", "coordinates": [ 18.812757, 59.479411 ] } },
{ "type": "Feature", "properties": { "name": "Solberga gård Runmarö kajak uthyrning", "lat": 59.255867, "lon": 18.758125, "image": null, "image_thumb": null, "qid": "Q134580717", "website": "https://solbergagard.nu/kajak.htm" }, "geometry": { "type": "Point", "coordinates": [ 18.758125, 59.255867 ] } },
{ "type": "Feature", "properties": { "name": "Nåttarö kajakuthyrning", "lat": 58.880652, "lon": 18.111101, "image": null, "image_thumb": null, "qid": "Q134580862", "website": "https://nattaro.se/aktiviteter/kajak/" }, "geometry": { "type": "Point", "coordinates": [ 18.111101, 58.880652 ] } },
{ "type": "Feature", "properties": { "name": "Svartsö kajak", "lat": 59.438104994, "lon": 18.6417515, "image": null, "image_thumb": null, "qid": "Q134580947", "website": "http://svartsökajak.se" }, "geometry": { "type": "Point", "coordinates": [ 18.6417515, 59.438104994 ] } },
{ "type": "Feature", "properties": { "name": "Sandhamns guiderna", "lat": 59.288053, "lon": 18.917372, "image": "http://commons.wikimedia.org/wiki/Special:FilePath/Sandhamns%20guiderna%202025%20juli.jpg", "image_thumb": null, "qid": "Q134581015", "website": "https://www.sandhamn.se/aktiviteter/" }, "geometry": { "type": "Point", "coordinates": [ 18.917372, 59.288053 ] } },
{ "type": "Feature", "properties": { "name": "Lidö utegym", "lat": 59.772086, "lon": 19.080021, "image": "http://commons.wikimedia.org/wiki/Special:FilePath/Li%C3%B6d%20utegym.jpg", "image_thumb": null, "qid": "Q134582041", "website": null }, "geometry": { "type": "Point", "coordinates": [ 19.080021, 59.772086 ] } },
{ "type": "Feature", "properties": { "name": "Noret Fjärdlång grillplats", "lat": 59.031514, "lon": 18.520431, "image": "http://commons.wikimedia.org/wiki/Special:FilePath/Grillplatsen-Noret.jpg", "image_thumb": null, "qid": "Q134582361", "website": null }, "geometry": { "type": "Point", "coordinates": [ 18.520431, 59.031514 ] } },
{ "type": "Feature", "properties": { "name": "Hamnviken utegym", "lat": 59.608047, "lon": 18.834031, "image": "http://commons.wikimedia.org/wiki/Special:FilePath/SAT%20Yxlan%202025%20maj%205%20-%20Hamnviken%20utegym.jpg", "image_thumb": null, "qid": "Q134582626", "website": null }, "geometry": { "type": "Point", "coordinates": [ 18.834031, 59.608047 ] } },
{ "type": "Feature", "properties": { "name": "Skarsand SAT grillplats", "lat": 58.884203, "lon": 18.136511, "image": "http://commons.wikimedia.org/wiki/Special:FilePath/SATN%C3%A5ttar%C3%B6%202025%20april%20Skarsand%20grillplats%20SAT%202.jpg", "image_thumb": null, "qid": "Q134582792", "website": null }, "geometry": { "type": "Point", "coordinates": [ 18.136511, 58.884203 ] } },
{ "type": "Feature", "properties": { "name": "Skarsand SAT grillplats 2", "lat": 58.884175, "lon": 18.136531, "image": "http://commons.wikimedia.org/wiki/Special:FilePath/SATN%C3%A5ttar%C3%B6%202025%20april%20Skarsand%20grillplatser%20SAT%20%281%29.jpg", "image_thumb": null, "qid": "Q134582833", "website": null }, "geometry": { "type": "Point", "coordinates": [ 18.136531, 58.884175 ] } },
{ "type": "Feature", "properties": { "name": "Skarsand 1 grillplats", "lat": 58.8841, "lon": 18.136836, "image": "http://commons.wikimedia.org/wiki/Special:FilePath/SATN%C3%A5ttar%C3%B6%202025%20april%20Skarsand%20grillplats.jpg", "image_thumb": null, "qid": "Q134583309", "website": null }, "geometry": { "type": "Point", "coordinates": [ 18.136836, 58.8841 ] } },
{ "type": "Feature", "properties": { "name": "Svartsö krog", "lat": 59.439179, "lon": 18.661314, "image": "http://commons.wikimedia.org/wiki/Special:FilePath/Svarts%C3%B6%20krog%2C%202020-11-01.jpg", "image_thumb": null, "qid": "Q134583669", "website": "http://svartsokrog.se/" }, "geometry": { "type": "Point", "coordinates": [ 18.661314, 59.439179 ] } },
{ "type": "Feature", "properties": { "name": "Svartsö Logi", "lat": 59.438519, "lon": 18.660954, "image": "http://commons.wikimedia.org/wiki/Special:FilePath/Svarts%C3%B6%20krog%2C%202020-11-01.jpg", "image_thumb": null, "qid": "Q134586880", "website": "http://www.svartsologi.se" }, "geometry": { "type": "Point", "coordinates": [ 18.660954, 59.438519 ] } },
{ "type": "Feature", "properties": { "name": "Östermarkiosken", "lat": 58.886642, "lon": 18.136489, "image": "http://commons.wikimedia.org/wiki/Special:FilePath/%C3%96stemarsfladen%20kiosken.jpg", "image_thumb": null, "qid": "Q134587349", "website": "https://www.nattaroboden.se/hem/ostermarkiosken/" }, "geometry": { "type": "Point", "coordinates": [ 18.136489, 58.886642 ] } },
{ "type": "Feature", "properties": { "name": "Nåttarö naturreservat", "lat": 58.873033344, "lon": 18.118719831, "image": "http://commons.wikimedia.org/wiki/Special:FilePath/%C3%96stra%20N%C3%A5ttar%C3%B6%20juli%202009.png", "image_thumb": null, "qid": "Q134587569", "website": "https://www.lansstyrelsen.se/stockholm/besoksmal/naturreservat/nattaro.html" }, "geometry": { "type": "Point", "coordinates": [ 18.118719831, 58.873033344 ] } },
{ "type": "Feature", "properties": { "name": "Rånö Brygga", "lat": 58.919776, "lon": 18.176366, "image": "http://commons.wikimedia.org/wiki/Special:FilePath/SAT%20R%C3%A5n%C3%B6%20Livs%20och%20krog.jpg", "image_thumb": null, "qid": "Q134587974", "website": "https://rano.se/krog/" }, "geometry": { "type": "Point", "coordinates": [ 18.176366, 58.919776 ] } },
{ "type": "Feature", "properties": { "name": "Låttas bageri", "lat": 59.275181, "lon": 18.743017, "image": "http://commons.wikimedia.org/wiki/Special:FilePath/SAT%20Runmar%C3%B6%2009.jpg", "image_thumb": null, "qid": "Q134588307", "website": null }, "geometry": { "type": "Point", "coordinates": [ 18.743017, 59.275181 ] } },
{ "type": "Feature", "properties": { "name": "Restaurang Svängen", "lat": 59.275880049000001, "lon": 18.742991181000001, "image": "http://commons.wikimedia.org/wiki/Special:FilePath/SAT%20Runmar%C3%B6%2014.jpg", "image_thumb": null, "qid": "Q134589066", "website": "https://svangenrunmaro.se/" }, "geometry": { "type": "Point", "coordinates": [ 18.742991181, 59.275880049 ] } },
{ "type": "Feature", "properties": { "name": "Båtshaket", "lat": 58.919339, "lon": 18.192144, "image": "http://commons.wikimedia.org/wiki/Special:FilePath/B%C3%A5tshaket%202025%20maj%20%284%29.jpg", "image_thumb": null, "qid": "Q134589221", "website": "https://www.batshaket.se/" }, "geometry": { "type": "Point", "coordinates": [ 18.192144, 58.919339 ] } },
{ "type": "Feature", "properties": { "name": "Familjegrav Sundén Cullberg Sandhamn", "lat": 59.288588, "lon": 18.90588, "image": "http://commons.wikimedia.org/wiki/Special:FilePath/Alrik%20Sund%C3%A9n-Cullbergs%20Familjegrav.jpg", "image_thumb": null, "qid": "Q134590423", "website": null }, "geometry": { "type": "Point", "coordinates": [ 18.90588, 59.288588 ] } },
{ "type": "Feature", "properties": { "name": "Öja tältplats", "lat": 58.767283, "lon": 17.860757, "image": "http://commons.wikimedia.org/wiki/Special:FilePath/%C3%96ja%20campingplats%20grillplats.jpg", "image_thumb": null, "qid": "Q134593750", "website": "https://visitlandsort.se/slappna-av-ma-bra/bo/landsorts-taltplats-med-eget-talt" }, "geometry": { "type": "Point", "coordinates": [ 17.860757, 58.767283 ] } },
{ "type": "Feature", "properties": { "name": "Café Norrhamn", "lat": 58.768578, "lon": 17.857143, "image": null, "image_thumb": null, "qid": "Q134593823", "website": "https://visitlandsort.se/slappna-av-ma-bra/ata/landsorts-gasthamn/" }, "geometry": { "type": "Point", "coordinates": [ 17.857143, 58.768578 ] } },
{ "type": "Feature", "properties": { "name": "Svartsö badplats", "lat": 59.438718, "lon": 18.654737, "image": "http://commons.wikimedia.org/wiki/Special:FilePath/Svarts%C3%B6%20SAT%20april%202025%20%2852%29.jpg", "image_thumb": null, "qid": "Q134599402", "website": null }, "geometry": { "type": "Point", "coordinates": [ 18.654737, 59.438718 ] } },
{ "type": "Feature", "properties": { "name": "Ålö Storsand dricksvatten", "lat": 58.909812, "lon": 18.219103, "image": "http://commons.wikimedia.org/wiki/Special:FilePath/SAT%20%C3%85l%C3%B6%20vandring%202025%20april%2055%20-%20vatten%20vid%20Storsand.jpg", "image_thumb": null, "qid": "Q134605030", "website": null }, "geometry": { "type": "Point", "coordinates": [ 18.219103, 58.909812 ] } },
{ "type": "Feature", "properties": { "name": "Myruddens badplats", "lat": 59.664687, "lon": 18.911037, "image": "http://commons.wikimedia.org/wiki/Special:FilePath/SAT%20Furusund%20grillplats%20Myrudden.jpg", "image_thumb": null, "qid": "Q134606657", "website": null }, "geometry": { "type": "Point", "coordinates": [ 18.911037, 59.664687 ] } },
{ "type": "Feature", "properties": { "name": "Södra fladen Utö, grillplats 2", "lat": 58.951705, "lon": 18.286458, "image": "http://commons.wikimedia.org/wiki/Special:FilePath/SAT%20Ut%C3%B6%202025%20april%2081.jpg", "image_thumb": null, "qid": "Q134606902", "website": null }, "geometry": { "type": "Point", "coordinates": [ 18.286458, 58.951705 ] } },
{ "type": "Feature", "properties": { "name": "Södra fladens vindskydd 2, Utö", "lat": 58.951767, "lon": 18.286388, "image": "http://commons.wikimedia.org/wiki/Special:FilePath/SAT%20Ut%C3%B6%202025%20april%2081.jpg", "image_thumb": null, "qid": "Q134606948", "website": null }, "geometry": { "type": "Point", "coordinates": [ 18.286388, 58.951767 ] } },
{ "type": "Feature", "properties": { "name": "Rånöhamn dricksvatten", "lat": 58.934978, "lon": 18.181781, "image": "http://commons.wikimedia.org/wiki/Special:FilePath/SAT%20R%C3%A5n%C3%B6%20vandring%202025%2004%2009.jpg", "image_thumb": null, "qid": "Q134607564", "website": null }, "geometry": { "type": "Point", "coordinates": [ 18.181781, 58.934978 ] } },
{ "type": "Feature", "properties": { "name": "Grinda tältplats dricksvatten", "lat": 59.416661, "lon": 18.559622, "image": "http://commons.wikimedia.org/wiki/Special:FilePath/SAT%20Grinda%20camping%20vattenpump.jpg", "image_thumb": null, "qid": "Q134607783", "website": null }, "geometry": { "type": "Point", "coordinates": [ 18.559622, 59.416661 ] } },
{ "type": "Feature", "properties": { "name": "Grillplats Arholma Nord östra", "lat": 59.861188, "lon": 19.125337, "image": "http://commons.wikimedia.org/wiki/Special:FilePath/SAT%20Arholma%2020250813%20-%2007.jpg", "image_thumb": null, "qid": "Q134611499", "website": null }, "geometry": { "type": "Point", "coordinates": [ 19.125337, 59.861188 ] } },
{ "type": "Feature", "properties": { "name": "Räfnäs brygga", "lat": 59.752297, "lon": 19.080339, "image": "http://commons.wikimedia.org/wiki/Special:FilePath/R%C3%A4fsn%C3%A4s%20Ferry%20stop%2001.jpg", "image_thumb": null, "qid": "Q134613388", "website": null }, "geometry": { "type": "Point", "coordinates": [ 19.080339, 59.752297 ] } },
{ "type": "Feature", "properties": { "name": "Boda brygga", "lat": 59.369986, "lon": 18.605078, "image": "http://commons.wikimedia.org/wiki/Special:FilePath/Boda%20brygga.jpg", "image_thumb": null, "qid": "Q134613421", "website": null }, "geometry": { "type": "Point", "coordinates": [ 18.605078, 59.369986 ] } },
{ "type": "Feature", "properties": { "name": "Sollenkroka brygga", "lat": 59.373037755, "lon": 18.69873796, "image": "http://commons.wikimedia.org/wiki/Special:FilePath/Sollenkroka%20brygga.jpg", "image_thumb": null, "qid": "Q134613611", "website": null }, "geometry": { "type": "Point", "coordinates": [ 18.69873796, 59.373037755 ] } },
{ "type": "Feature", "properties": { "name": "Stavsnäs vinterhamn", "lat": 59.286311, "lon": 18.704814, "image": "http://commons.wikimedia.org/wiki/Special:FilePath/Stavsn%C3%A4s%20brygga.jpg", "image_thumb": null, "qid": "Q134613649", "website": null }, "geometry": { "type": "Point", "coordinates": [ 18.704814, 59.286311 ] } },
{ "type": "Feature", "properties": { "name": "Dalarö brygga", "lat": 59.129491, "lon": 18.404953, "image": "http://commons.wikimedia.org/wiki/Special:FilePath/Dalar%C3%B6%20brygga.jpg", "image_thumb": null, "qid": "Q134614130", "website": null }, "geometry": { "type": "Point", "coordinates": [ 18.404953, 59.129491 ] } },
{ "type": "Feature", "properties": { "name": "Årsta brygga", "lat": 59.082236, "lon": 18.173469, "image": "http://commons.wikimedia.org/wiki/Special:FilePath/SAT%20Ut%C3%B6%202025%20maj%20Silverpilen%20at%20gruvbryggan%20ferry%20stop.jpg", "image_thumb": null, "qid": "Q134614578", "website": null }, "geometry": { "type": "Point", "coordinates": [ 18.173469, 59.082236 ] } },
{ "type": "Feature", "properties": { "name": "Ankaruddens brygga", "lat": 58.801224071999997, "lon": 17.835783890999998, "image": "http://commons.wikimedia.org/wiki/Special:FilePath/Ankarudden%20brygga%202011.jpg", "image_thumb": null, "qid": "Q134614663", "website": null }, "geometry": { "type": "Point", "coordinates": [ 17.835783891, 58.801224072 ] } },
{ "type": "Feature", "properties": { "name": "Wibomska villan", "lat": 58.937113, "lon": 18.196412, "image": "http://commons.wikimedia.org/wiki/Special:FilePath/SAT%20R%C3%A5n%C3%B6%202%20apr%202025%20%2829%29.jpg", "image_thumb": null, "qid": "Q134615237", "website": null }, "geometry": { "type": "Point", "coordinates": [ 18.196412, 58.937113 ] } },
{ "type": "Feature", "properties": { "name": "Rånö gård", "lat": 58.936051, "lon": 18.198745, "image": "http://commons.wikimedia.org/wiki/Special:FilePath/R%C3%A5n%C3%B6%20g%C3%A5rd%20hist%20bild.jpg", "image_thumb": null, "qid": "Q134619296", "website": "https://skargardsguiding.se/sodra-skargarden/rano/" }, "geometry": { "type": "Point", "coordinates": [ 18.198745, 58.936051 ] } },
{ "type": "Feature", "properties": { "name": "Hästholmsudden, Rånö", "lat": 58.93995, "lon": 18.213394, "image": "http://commons.wikimedia.org/wiki/Special:FilePath/SAT%20R%C3%A5n%C3%B6%20april%20vandring%2019.jpg", "image_thumb": null, "qid": "Q134619303", "website": null }, "geometry": { "type": "Point", "coordinates": [ 18.213394, 58.93995 ] } },
{ "type": "Feature", "properties": { "name": "Hasselmara brygga", "lat": 59.089155087999998, "lon": 18.415409522000001, "image": "http://commons.wikimedia.org/wiki/Special:FilePath/SAT%20Orn%C3%B6%20norra%202025%20maj%20Hasselmara%20Brygga%20%282%29.jpg", "image_thumb": null, "qid": "Q134621708", "website": null }, "geometry": { "type": "Point", "coordinates": [ 18.415409522, 59.089155088 ] } },
{ "type": "Feature", "properties": { "name": "Ornöboda brygga", "lat": 59.111836400999998, "lon": 18.483824673000001, "image": "http://commons.wikimedia.org/wiki/Special:FilePath/Orn%C3%B6boda%20Ferry%20stop%2002.jpg", "image_thumb": null, "qid": "Q134621751", "website": null }, "geometry": { "type": "Point", "coordinates": [ 18.483824673, 59.111836401 ] } },
{ "type": "Feature", "properties": { "name": "Nynäshamn brygga", "lat": 58.901031, "lon": 17.952956, "image": "http://commons.wikimedia.org/wiki/Special:FilePath/Nyn%C3%A4shamn%20brygga%2001.jpg", "image_thumb": null, "qid": "Q134621810", "website": null }, "geometry": { "type": "Point", "coordinates": [ 17.952956, 58.901031 ] } },
{ "type": "Feature", "properties": { "name": "Ålö brygga", "lat": 58.919996537000003, "lon": 18.191758076, "image": "http://commons.wikimedia.org/wiki/Special:FilePath/SAT%20%C3%85l%C3%B6%20brygga%202025%20maj%20%28253%29.jpg", "image_thumb": null, "qid": "Q134621885", "website": null }, "geometry": { "type": "Point", "coordinates": [ 18.191758076, 58.919996537 ] } },
{ "type": "Feature", "properties": { "name": "Alsvik brygga", "lat": 59.43794629, "lon": 18.657112251000001, "image": "http://commons.wikimedia.org/wiki/Special:FilePath/Svarts%C3%B6%20Lanthandel.jpg", "image_thumb": null, "qid": "Q134621955", "website": null }, "geometry": { "type": "Point", "coordinates": [ 18.657112251, 59.43794629 ] } },
{ "type": "Feature", "properties": { "name": "SAT Ålö - Utö", "lat": 58.935986, "lon": 18.228657, "image": "http://commons.wikimedia.org/wiki/Special:FilePath/SPM%20A0857.jpg", "image_thumb": null, "qid": "Q134625421", "website": "https://stockholmarchipelagotrail.com/section/uto" }, "geometry": { "type": "Point", "coordinates": [ 18.228657, 58.935986 ] } },
{ "type": "Feature", "properties": { "name": "SAT Ålö - Utö", "lat": 58.935986, "lon": 18.228657, "image": "http://commons.wikimedia.org/wiki/Special:FilePath/SPM%20A0857.jpg", "image_thumb": null, "qid": "Q134625421", "website": "https://stockholmarchipelagotrail.com/sv/section/etapp-uto-sv" }, "geometry": { "type": "Point", "coordinates": [ 18.228657, 58.935986 ] } },
{ "type": "Feature", "properties": { "name": "Roddbåtar att korsa mellan Finnhamn till Ingmarsö", "lat": 59.482053, "lon": 18.804474, "image": "http://commons.wikimedia.org/wiki/Special:FilePath/B%C3%A5tluffarleden.webp", "image_thumb": null, "qid": "Q134625714", "website": "https://www.vandringstjejen.se/finnhamn-ingaro-batluffarled" }, "geometry": { "type": "Point", "coordinates": [ 18.804474, 59.482053 ] } },
{ "type": "Feature", "properties": { "name": "Lättinge brygga", "lat": 59.044796, "lon": 18.365203, "image": "http://commons.wikimedia.org/wiki/Special:FilePath/SAT%20Orn%C3%B6%202025%20april%20L%C3%A4ttinge%20brygga%20f%C3%A4rjel%C3%A4get.jpg", "image_thumb": null, "qid": "Q134626197", "website": null }, "geometry": { "type": "Point", "coordinates": [ 18.365203, 59.044796 ] } },
{ "type": "Feature", "properties": { "name": "Arholma dansbana", "lat": 59.849869, "lon": 19.108631, "image": "http://commons.wikimedia.org/wiki/Special:FilePath/Arholma%20EM1B3331%20%2843878187601%29.jpg", "image_thumb": null, "qid": "Q134667339", "website": "https://arholmadansbana.se" }, "geometry": { "type": "Point", "coordinates": [ 19.108631, 59.849869 ] } },
{ "type": "Feature", "properties": { "name": "Arholma Nord", "lat": 59.86079312, "lon": 19.123592134, "image": "http://commons.wikimedia.org/wiki/Special:FilePath/BatteriArholma20120714-9.JPG", "image_thumb": null, "qid": "Q134676671", "website": "https://arholmanord.se/boende/" }, "geometry": { "type": "Point", "coordinates": [ 19.123592134, 59.86079312 ] } },
{ "type": "Feature", "properties": { "name": "Ahlmansvikens badplats", "lat": 59.854025, "lon": 19.11163, "image": "http://commons.wikimedia.org/wiki/Special:FilePath/Arholma%20SAT%2020250813%2016%20badplats.jpg", "image_thumb": null, "qid": "Q134677819", "website": "https://www.arholma.nu/se-uppleva/badplatser" }, "geometry": { "type": "Point", "coordinates": [ 19.11163, 59.854025 ] } },
{ "type": "Feature", "properties": { "name": "Granö badplats", "lat": 59.838537, "lon": 19.092248, "image": "http://commons.wikimedia.org/wiki/Special:FilePath/SAT%2020250813%20Arholma%2007.jpg", "image_thumb": null, "qid": "Q134688729", "website": "https://www.arholma.nu/se-uppleva/badplatser" }, "geometry": { "type": "Point", "coordinates": [ 19.092248, 59.838537 ] } },
{ "type": "Feature", "properties": { "name": "Arholma Nord badplats", "lat": 59.861461, "lon": 19.12396, "image": "http://commons.wikimedia.org/wiki/Special:FilePath/Arholma%20July%202019%2001.jpg", "image_thumb": null, "qid": "Q134688746", "website": "https://www.arholma.nu/se-uppleva/badplatser" }, "geometry": { "type": "Point", "coordinates": [ 19.12396, 59.861461 ] } },
{ "type": "Feature", "properties": { "name": "Granö brygga", "lat": 59.836309319000001, "lon": 19.088774871999998, "image": "http://commons.wikimedia.org/wiki/Special:FilePath/Arholma%2020250813%20SAT%20-%2001.jpg", "image_thumb": null, "qid": "Q134688756", "website": null }, "geometry": { "type": "Point", "coordinates": [ 19.088774872, 59.836309319 ] } },
{ "type": "Feature", "properties": { "name": "Nåttarö gård och resort", "lat": 58.879360239, "lon": 18.113120096, "image": null, "image_thumb": null, "qid": "Q134691316", "website": "https://nattaro.se/" }, "geometry": { "type": "Point", "coordinates": [ 18.113120096, 58.879360239 ] } },
{ "type": "Feature", "properties": { "name": "Hamnkontoret Grinda", "lat": 59.414139, "lon": 18.557126, "image": "http://commons.wikimedia.org/wiki/Special:FilePath/Grinda%2C%2020160528%2C%2005.jpg", "image_thumb": null, "qid": "Q134692717", "website": "https://www.gasthamnsguiden.se/sv/hamn/grinda-gasthamn/" }, "geometry": { "type": "Point", "coordinates": [ 18.557126, 59.414139 ] } },
{ "type": "Feature", "properties": { "name": "Nämdö Krogen, Solvik", "lat": 59.1850001, "lon": 18.7003354, "image": "http://commons.wikimedia.org/wiki/Special:FilePath/SAT%20N%C3%A4md%C3%B6%20vandring%20Restaurangen%20i%20Solvik.jpg", "image_thumb": null, "qid": "Q134692920", "website": "https://www.namdosolvik.com/" }, "geometry": { "type": "Point", "coordinates": [ 18.7003354, 59.1850001 ] } },
{ "type": "Feature", "properties": { "name": "Knicksand grillplats", "lat": 58.917789, "lon": 18.165038, "image": "http://commons.wikimedia.org/wiki/Special:FilePath/Knicksand-grillplats-1.jpg", "image_thumb": null, "qid": "Q133864761", "website": null }, "geometry": { "type": "Point", "coordinates": [ 18.165038, 58.917789 ] } },
{ "type": "Feature", "properties": { "name": "Knicksand grillplats", "lat": 58.917563, "lon": 18.165444, "image": "http://commons.wikimedia.org/wiki/Special:FilePath/Grillplats-Knicksand-Rano-vid-badplatsen.jpg", "image_thumb": null, "qid": "Q133864801", "website": null }, "geometry": { "type": "Point", "coordinates": [ 18.165444, 58.917563 ] } },
{ "type": "Feature", "properties": { "name": "Sandön, grillplats", "lat": 59.278198, "lon": 18.909647, "image": "http://commons.wikimedia.org/wiki/Special:FilePath/Enkel%20grillplatsen%20p%C3%A5%20Sand%C3%B6n.jpg", "image_thumb": null, "qid": "Q133864847", "website": null }, "geometry": { "type": "Point", "coordinates": [ 18.909647, 59.278198 ] } },
{ "type": "Feature", "properties": { "name": "Myrudden, grillplats", "lat": 59.664687, "lon": 18.911037, "image": "http://commons.wikimedia.org/wiki/Special:FilePath/SAT%20Furusund%20grillplats%20Myrudden.jpg", "image_thumb": null, "qid": "Q133864944", "website": null }, "geometry": { "type": "Point", "coordinates": [ 18.911037, 59.664687 ] } },
{ "type": "Feature", "properties": { "name": "Lidö brygga", "lat": 59.770089321999997, "lon": 19.079148874000001, "image": "http://commons.wikimedia.org/wiki/Special:FilePath/Lid%C3%B6%20ferry%20stop%2001.jpg", "image_thumb": null, "qid": "Q133867299", "website": null }, "geometry": { "type": "Point", "coordinates": [ 19.079148874, 59.770089322 ] } },
{ "type": "Feature", "properties": { "name": "Furusunds museipaviljong", "lat": 59.660983, "lon": 18.916223, "image": "http://commons.wikimedia.org/wiki/Special:FilePath/SAT%20Furusund%202025%20april%20Musei%20paviljongen.jpg", "image_thumb": null, "qid": "Q133867370", "website": null }, "geometry": { "type": "Point", "coordinates": [ 18.916223, 59.660983 ] } },
{ "type": "Feature", "properties": { "name": "Lidö Österhamn grillplats", "lat": 59.778733, "lon": 19.091683, "image": "http://commons.wikimedia.org/wiki/Special:FilePath/SAT%20Lid%C3%B6%20%C3%96sterhamn%20grillplats%2002.jpg", "image_thumb": null, "qid": "Q133872120", "website": null }, "geometry": { "type": "Point", "coordinates": [ 19.091683, 59.778733 ] } },
{ "type": "Feature", "properties": { "name": "Femsundvikens badplats", "lat": 59.470417, "lon": 18.770808, "image": "http://commons.wikimedia.org/wiki/Special:FilePath/Ingmars%C3%B6%20Femsundsvikens%20badplats%2001.jpg", "image_thumb": null, "qid": "Q133880548", "website": null }, "geometry": { "type": "Point", "coordinates": [ 18.770808, 59.470417 ] } },
{ "type": "Feature", "properties": { "name": "Ingmarsö Brottö Hembygdsmuseum", "lat": 59.473571925000002, "lon": 18.75556461, "image": "http://commons.wikimedia.org/wiki/Special:FilePath/SAT%20Ingmars%C3%B6%20Hembygdsmuseum.jpg", "image_thumb": null, "qid": "Q133883699", "website": null }, "geometry": { "type": "Point", "coordinates": [ 18.75556461, 59.473571925 ] } },
{ "type": "Feature", "properties": { "name": "Isola Bella", "lat": 59.655766227000001, "lon": 18.904130614, "image": "http://commons.wikimedia.org/wiki/Special:FilePath/NMA.0057989.jpg", "image_thumb": null, "qid": "Q133884437", "website": "https://digitaltmuseum.org/011013853857/_" }, "geometry": { "type": "Point", "coordinates": [ 18.904130614, 59.655766227 ] } },
{ "type": "Feature", "properties": { "name": "Roddbåtar att korsa mellan Ingmarsö till Finnhamn", "lat": 59.480977, "lon": 18.79846, "image": "http://commons.wikimedia.org/wiki/Special:FilePath/B%C3%A5tluffarleden%20Finnhamns%20sidan%2001.jpg", "image_thumb": null, "qid": "Q133884655", "website": "https://www.vandringstjejen.se/finnhamn-ingaro-batluffarled" }, "geometry": { "type": "Point", "coordinates": [ 18.79846, 59.480977 ] } },
{ "type": "Feature", "properties": { "name": "Norra Ingmarsö brygga", "lat": 59.477107, "lon": 18.749015, "image": "http://commons.wikimedia.org/wiki/Special:FilePath/SAT%20Ingmars%C3%B6%20-%20norra%20Ingmars%C3%B6%20brygga%202025%20april.jpg", "image_thumb": null, "qid": "Q133884690", "website": null }, "geometry": { "type": "Point", "coordinates": [ 18.749015, 59.477107 ] } },
{ "type": "Feature", "properties": { "name": "Åsättra brygga", "lat": 59.504728, "lon": 18.638058, "image": "http://commons.wikimedia.org/wiki/Special:FilePath/MS%20Holly%2020180908%2008.jpg", "image_thumb": null, "qid": "Q133884712", "website": null }, "geometry": { "type": "Point", "coordinates": [ 18.638058, 59.504728 ] } },
{ "type": "Feature", "properties": { "name": "Spränga brygga", "lat": 58.957522, "lon": 18.294478, "image": "http://commons.wikimedia.org/wiki/Special:FilePath/SAT%20Ut%C3%B6%20april%20vandring%2002.jpg", "image_thumb": null, "qid": "Q133884785", "website": null }, "geometry": { "type": "Point", "coordinates": [ 18.294478, 58.957522 ] } },
{ "type": "Feature", "properties": { "name": "Gruvbryggan", "lat": 58.970419348, "lon": 18.325082143, "image": "http://commons.wikimedia.org/wiki/Special:FilePath/SAT%20Ut%C3%B6%202025%20april%20197.jpg", "image_thumb": null, "qid": "Q133884836", "website": null }, "geometry": { "type": "Point", "coordinates": [ 18.325082143, 58.970419348 ] } },
{ "type": "Feature", "properties": { "name": "Brottö kulturreservat", "lat": 59.465922, "lon": 18.727369, "image": "http://commons.wikimedia.org/wiki/Special:FilePath/SAT%20Brott%C3%B6%20kulturreservat.jpg", "image_thumb": null, "qid": "Q133884947", "website": "https://stockholmslansmuseum.se/utstallningar/brotto/kulturreservatet-pa-brotto/" }, "geometry": { "type": "Point", "coordinates": [ 18.727369, 59.465922 ] } },
{ "type": "Feature", "properties": { "name": "Kompassros", "lat": 59.660856, "lon": 18.915697, "image": "http://commons.wikimedia.org/wiki/Special:FilePath/AN-10600.jpg", "image_thumb": null, "qid": "Q133885312", "website": "https://www.furusund.se/kompassrosen/" }, "geometry": { "type": "Point", "coordinates": [ 18.915697, 59.660856 ] } },
{ "type": "Feature", "properties": { "name": "Arholma brygga", "lat": 59.851226, "lon": 19.10753, "image": "http://commons.wikimedia.org/wiki/Special:FilePath/SAT%20etapp%20Arholma%2021%20Vaxholms%20b%C3%A5ten.jpg", "image_thumb": null, "qid": "Q133885585", "website": null }, "geometry": { "type": "Point", "coordinates": [ 19.10753, 59.851226 ] } },
{ "type": "Feature", "properties": { "name": "Simpnäs brygga", "lat": 59.869934315000002, "lon": 19.077354534000001, "image": null, "image_thumb": null, "qid": "Q133885677", "website": null }, "geometry": { "type": "Point", "coordinates": [ 19.077354534, 59.869934315 ] } },
{ "type": "Feature", "properties": { "name": "badplats på norra Grinda", "lat": 59.419442, "lon": 18.555301, "image": null, "image_thumb": null, "qid": "Q133885997", "website": null }, "geometry": { "type": "Point", "coordinates": [ 18.555301, 59.419442 ] } },
{ "type": "Feature", "properties": { "name": "Nåttarö badplats", "lat": 58.883342, "lon": 18.115042, "image": null, "image_thumb": null, "qid": "Q133886133", "website": null }, "geometry": { "type": "Point", "coordinates": [ 18.115042, 58.883342 ] } },
{ "type": "Feature", "properties": { "name": "Nåttarö brygga", "lat": 58.881768, "lon": 18.109819, "image": "http://commons.wikimedia.org/wiki/Special:FilePath/N%C3%A5ttar%C3%B6%20brygga%2001.jpg", "image_thumb": null, "qid": "Q133886292", "website": null }, "geometry": { "type": "Point", "coordinates": [ 18.109819, 58.881768 ] } },
{ "type": "Feature", "properties": { "name": "Själudden, tältplats", "lat": 59.196767, "lon": 18.737779, "image": "http://commons.wikimedia.org/wiki/Special:FilePath/SAT%20N%C3%A4md%C3%B6%20103.jpg", "image_thumb": null, "qid": "Q133886565", "website": "https://www.explorearchipelago.com/sv/sthlm/mellersta-skargarden/namdo" }, "geometry": { "type": "Point", "coordinates": [ 18.737779, 59.196767 ] } },
{ "type": "Feature", "properties": { "name": "Vindskydd lilla Jolpan", "lat": 59.47289, "lon": 18.818998, "image": "http://commons.wikimedia.org/wiki/Special:FilePath/Lilla%20Jolpan%20vindskydd%2001.jpg", "image_thumb": null, "qid": "Q133895106", "website": null }, "geometry": { "type": "Point", "coordinates": [ 18.818998, 59.47289 ] } },
{ "type": "Feature", "properties": { "name": "Thielska villan, Fjärdlång", "lat": 59.036498, "lon": 18.517382, "image": "http://commons.wikimedia.org/wiki/Special:FilePath/Fj%C3%A4rdl%C3%A5ng2010a.jpg", "image_thumb": null, "qid": "Q133980758", "website": null }, "geometry": { "type": "Point", "coordinates": [ 18.517382, 59.036498 ] } },
{ "type": "Feature", "properties": { "name": "Fjärdlång bryggan, grillplats", "lat": 59.035715, "lon": 18.511983, "image": "http://commons.wikimedia.org/wiki/Special:FilePath/SAT%20Fj%C3%A4rdl%C3%A5ng%20grillplats%20bryggan.jpg", "image_thumb": null, "qid": "Q133993440", "website": "https://grillplatser.nu/Grillplats/Visa/Fjardlang-brygga" }, "geometry": { "type": "Point", "coordinates": [ 18.511983, 59.035715 ] } },
{ "type": "Feature", "properties": { "name": "Fjärdlång tältplats", "lat": 59.037833, "lon": 18.515919, "image": "http://commons.wikimedia.org/wiki/Special:FilePath/SAT%20Fj%C3%A4rdl%C3%A5ng%20t%C3%A4ltplatsen.jpg", "image_thumb": null, "qid": "Q133993942", "website": "https://www.lansstyrelsen.se/stockholm/besoksmal/naturreservat/fjardlang.html" }, "geometry": { "type": "Point", "coordinates": [ 18.515919, 59.037833 ] } },
{ "type": "Feature", "properties": { "name": "Fjärdlång brygga", "lat": 59.035537, "lon": 18.51051, "image": "http://commons.wikimedia.org/wiki/Special:FilePath/SAT%20Fj%C3%A4rdl%C3%A5ng%202025%20april%20brygga%20%281%29.jpg", "image_thumb": null, "qid": "Q133993978", "website": null }, "geometry": { "type": "Point", "coordinates": [ 18.51051, 59.035537 ] } },
{ "type": "Feature", "properties": { "name": "Ragnars kiosk badplats", "lat": 59.47942, "lon": 18.812668, "image": "http://commons.wikimedia.org/wiki/Special:FilePath/Finnhamn%20Ragnars%20kiosk%20grillplatsen.jpg", "image_thumb": null, "qid": "Q133994022", "website": "https://www.svenskaturistforeningen.se/boende/stf-finnhamns-vandrarhem/upplev/" }, "geometry": { "type": "Point", "coordinates": [ 18.812668, 59.47942 ] } },
{ "type": "Feature", "properties": { "name": "Styrsvik brygga", "lat": 59.280197, "lon": 18.731461, "image": "http://commons.wikimedia.org/wiki/Special:FilePath/Styrsviks%20brygga.jpg", "image_thumb": null, "qid": "Q133994161", "website": null }, "geometry": { "type": "Point", "coordinates": [ 18.731461, 59.280197 ] } },
{ "type": "Feature", "properties": { "name": "Skälviks brygga", "lat": 59.443925, "lon": 18.680697, "image": "http://commons.wikimedia.org/wiki/Special:FilePath/SAT%20Svarts%C3%B6%20Sk%C3%A4llviks%20brygga%2001.jpg", "image_thumb": null, "qid": "Q133994206", "website": null }, "geometry": { "type": "Point", "coordinates": [ 18.680697, 59.443925 ] } },
{ "type": "Feature", "properties": { "name": "Söderboudd brygga", "lat": 59.455473, "lon": 18.739831, "image": "http://commons.wikimedia.org/wiki/Special:FilePath/S%C3%B6derboudd%20SAT%20Svarts%C3%B6%2004.jpg", "image_thumb": null, "qid": "Q134000657", "website": null }, "geometry": { "type": "Point", "coordinates": [ 18.739831, 59.455473 ] } },
{ "type": "Feature", "properties": { "name": "Thielska villan, grillplats, Fjärdlång", "lat": 59.036678, "lon": 18.517191, "image": "http://commons.wikimedia.org/wiki/Special:FilePath/SAT%20Fj%C3%A4rdl%C3%A5ng%202025%20april%20Thielska%20villan%20grillplats.jpg", "image_thumb": null, "qid": "Q134005778", "website": "https://grillplatser.nu/Grillplats/Visa/Thielska-villan" }, "geometry": { "type": "Point", "coordinates": [ 18.517191, 59.036678 ] } },
{ "type": "Feature", "properties": { "name": "Tysta Klint", "lat": 59.052342, "lon": 18.518747, "image": "http://commons.wikimedia.org/wiki/Special:FilePath/SAT%20Fj%C3%A4rdl%C3%A5ng%202025%20april%20Vita%20Klint.jpg", "image_thumb": null, "qid": "Q134005834", "website": null }, "geometry": { "type": "Point", "coordinates": [ 18.518747, 59.052342 ] } },
{ "type": "Feature", "properties": { "name": "Fjärdlång tältplats, grillplats", "lat": 59.0378705, "lon": 18.5160081, "image": "http://commons.wikimedia.org/wiki/Special:FilePath/SAT%20Fj%C3%A4rdl%C3%A5ng%202025%20april%20T%C3%A4ltplats%20-%20grillplats.jpg", "image_thumb": null, "qid": "Q134006267", "website": "https://grillplatser.nu/Grillplats/Visa/Fjardlangen-2" }, "geometry": { "type": "Point", "coordinates": [ 18.5160081, 59.0378705 ] } },
{ "type": "Feature", "properties": { "name": "Pojkarnas udde grillplats", "lat": 59.479442, "lon": 18.805395, "image": "http://commons.wikimedia.org/wiki/Special:FilePath/SAT%20Finnhamn%20grillplats%20Pojkarnas%20udde%2001.jpg", "image_thumb": null, "qid": "Q134006727", "website": null }, "geometry": { "type": "Point", "coordinates": [ 18.805395, 59.479442 ] } },
{ "type": "Feature", "properties": { "name": "Lanthandel på Finnhamn", "lat": 59.482819, "lon": 18.824389, "image": "http://commons.wikimedia.org/wiki/Special:FilePath/SAT%20Finnhamn%202025%20april%20aff%C3%A4ren.jpg", "image_thumb": null, "qid": "Q134006996", "website": null }, "geometry": { "type": "Point", "coordinates": [ 18.824389, 59.482819 ] } },
{ "type": "Feature", "properties": { "name": "Södra Ingmarsö brygga", "lat": 59.465369, "lon": 18.750957, "image": "http://commons.wikimedia.org/wiki/Special:FilePath/Ingmars%C3%B6%20Ferry%20stop%2002.jpg", "image_thumb": null, "qid": "Q134007206", "website": null }, "geometry": { "type": "Point", "coordinates": [ 18.750957, 59.465369 ] } },
{ "type": "Feature", "properties": { "name": "Landsort västra hamn", "lat": 58.744542, "lon": 17.864569, "image": "http://commons.wikimedia.org/wiki/Special:FilePath/SAT%20Landsort%2051.jpg", "image_thumb": null, "qid": "Q134007303", "website": null }, "geometry": { "type": "Point", "coordinates": [ 17.864569, 58.744542 ] } },
{ "type": "Feature", "properties": { "name": "Landsort östra hamn", "lat": 58.743782, "lon": 17.868274, "image": "http://commons.wikimedia.org/wiki/Special:FilePath/SAT%20Landsort%2057.jpg", "image_thumb": null, "qid": "Q134007357", "website": null }, "geometry": { "type": "Point", "coordinates": [ 17.868274, 58.743782 ] } },
{ "type": "Feature", "properties": { "name": "Sand brygga, Nämdö", "lat": 59.182328, "lon": 18.693147, "image": "http://commons.wikimedia.org/wiki/Special:FilePath/SAT%20N%C3%A4md%C3%B6%20vandring%20Sand%20brygga.jpg", "image_thumb": null, "qid": "Q134007558", "website": null }, "geometry": { "type": "Point", "coordinates": [ 18.693147, 59.182328 ] } },
{ "type": "Feature", "properties": { "name": "Nämdöböte brygga", "lat": 59.208756, "lon": 18.740054, "image": "http://commons.wikimedia.org/wiki/Special:FilePath/SAT%20N%C3%A4md%C3%B6%20b%2003.jpg", "image_thumb": null, "qid": "Q134007589", "website": null }, "geometry": { "type": "Point", "coordinates": [ 18.740054, 59.208756 ] } },
{ "type": "Feature", "properties": { "name": "Solvik brygga", "lat": 59.184623, "lon": 18.700403, "image": "http://commons.wikimedia.org/wiki/Special:FilePath/SAT%20N%C3%A4md%C3%B6%20vandring%20Restaurangen%20i%20Solvik.jpg", "image_thumb": null, "qid": "Q134007653", "website": null }, "geometry": { "type": "Point", "coordinates": [ 18.700403, 59.184623 ] } },
{ "type": "Feature", "properties": { "name": "Östanvik brygga", "lat": 59.197467985000003, "lon": 18.739831237000001, "image": "http://commons.wikimedia.org/wiki/Special:FilePath/SAT%20N%C3%A4md%C3%B6%20101.jpg", "image_thumb": null, "qid": "Q134007692", "website": null }, "geometry": { "type": "Point", "coordinates": [ 18.739831237, 59.197467985 ] } },
{ "type": "Feature", "properties": { "name": "Arholma handel", "lat": 59.851166, "lon": 19.108069, "image": "http://commons.wikimedia.org/wiki/Special:FilePath/Arholma20120713-3.JPG", "image_thumb": null, "qid": "Q134007891", "website": "https://arholmahandel.se/" }, "geometry": { "type": "Point", "coordinates": [ 19.108069, 59.851166 ] } },
{ "type": "Feature", "properties": { "name": "Brottö brygga", "lat": 59.465658, "lon": 18.727618, "image": "http://commons.wikimedia.org/wiki/Special:FilePath/SAT%20Brottby%20Ferry%20stop%2002.jpg", "image_thumb": null, "qid": "Q134008052", "website": null }, "geometry": { "type": "Point", "coordinates": [ 18.727618, 59.465658 ] } },
{ "type": "Feature", "properties": { "name": "Rånö brygga", "lat": 58.919299, "lon": 18.178029, "image": "http://commons.wikimedia.org/wiki/Special:FilePath/SAT%20R%C3%A5n%C3%B6%20vandring%202025%20april%202%2001.jpg", "image_thumb": null, "qid": "Q134008562", "website": null }, "geometry": { "type": "Point", "coordinates": [ 18.178029, 58.919299 ] } },
{ "type": "Feature", "properties": { "name": "Nåttarö snorklingsled", "lat": 58.881395392999998, "lon": 18.111376871000001, "image": "http://commons.wikimedia.org/wiki/Special:FilePath/N%C3%A5ttar%C3%B6%20snorklingsled.jpg", "image_thumb": null, "qid": "Q134078770", "website": "https://www.naturkartan.se/sv/stockholms-lan/badplats-bp7" }, "geometry": { "type": "Point", "coordinates": [ 18.111376871, 58.881395393 ] } },
{ "type": "Feature", "properties": { "name": "Vänsviken, Nåttarö BBQ", "lat": 58.86828, "lon": 18.12492, "image": "http://commons.wikimedia.org/wiki/Special:FilePath/SATN%C3%A5ttar%C3%B6%202025%20april%20grillplats%20V%C3%A4nsvik.jpg", "image_thumb": null, "qid": "Q134082069", "website": null }, "geometry": { "type": "Point", "coordinates": [ 18.12492, 58.86828 ] } },
{ "type": "Feature", "properties": { "name": "Östemar grillplats gamla", "lat": 58.887353, "lon": 18.137578, "image": "http://commons.wikimedia.org/wiki/Special:FilePath/SATN%C3%A5ttar%C3%B6%202025%20april%20%C3%96stemar%20grillplats%20gamla.jpg", "image_thumb": null, "qid": "Q134082140", "website": null }, "geometry": { "type": "Point", "coordinates": [ 18.137578, 58.887353 ] } },
{ "type": "Feature", "properties": { "name": "Östemar grillplats nya", "lat": 58.887157, "lon": 18.137387, "image": "http://commons.wikimedia.org/wiki/Special:FilePath/SATN%C3%A5ttar%C3%B6%202025%20april%20%C3%96stemar%20grillplats%20SAT.jpg", "image_thumb": null, "qid": "Q134082735", "website": null }, "geometry": { "type": "Point", "coordinates": [ 18.137387, 58.887157 ] } },
{ "type": "Feature", "properties": { "name": "Nåttarö tältplats", "lat": 58.878208, "lon": 18.110399, "image": "http://commons.wikimedia.org/wiki/Special:FilePath/SATN%C3%A5ttar%C3%B6%202025%20april%20%285%29.jpg", "image_thumb": null, "qid": "Q134083897", "website": "https://nattaro.se/boende/" }, "geometry": { "type": "Point", "coordinates": [ 18.110399, 58.878208 ] } },
{ "type": "Feature", "properties": { "name": "Kvarnvikens badstrand", "lat": 58.880900265000001, "lon": 18.110128971999998, "image": "http://commons.wikimedia.org/wiki/Special:FilePath/SATN%C3%A5ttar%C3%B6%202025%20april%20badstrand%20Kvarnviken%20och%20grillplats.jpg", "image_thumb": null, "qid": "Q134176668", "website": null }, "geometry": { "type": "Point", "coordinates": [ 18.110128972, 58.880900265 ] } },
{ "type": "Feature", "properties": { "name": "Skarsand, Nåttarö", "lat": 58.884256111, "lon": 18.137863887999998, "image": "http://commons.wikimedia.org/wiki/Special:FilePath/SATN%C3%A5ttar%C3%B6%202025%20april%20Skarsand%20%282%29.jpg", "image_thumb": null, "qid": "Q134176709", "website": null }, "geometry": { "type": "Point", "coordinates": [ 18.137863888, 58.884256111 ] } },
{ "type": "Feature", "properties": { "name": "Furusundsbadplats, grillplats", "lat": 59.661464, "lon": 18.902344, "image": "http://commons.wikimedia.org/wiki/Special:FilePath/SAT%20Furusund%20Furusundsbadplats%2C%20grillplats.jpg", "image_thumb": null, "qid": "Q134290283", "website": null }, "geometry": { "type": "Point", "coordinates": [ 18.902344, 59.661464 ] } },
{ "type": "Feature", "properties": { "name": "Furusundsbadplats", "lat": 59.661639, "lon": 18.902181, "image": "http://commons.wikimedia.org/wiki/Special:FilePath/SAT%20Furusund%20Furusundsbadplats%20%281%29.jpg", "image_thumb": null, "qid": "Q134290334", "website": null }, "geometry": { "type": "Point", "coordinates": [ 18.902181, 59.661639 ] } },
{ "type": "Feature", "properties": { "name": "Gatan, brygga", "lat": 59.294460591000004, "lon": 18.756457662, "image": "http://commons.wikimedia.org/wiki/Special:FilePath/Gatan%20Ferry%20stop%2C%20Runmar%C3%B6%2001.jpg", "image_thumb": null, "qid": "Q134297092", "website": null }, "geometry": { "type": "Point", "coordinates": [ 18.756457662, 59.294460591 ] } },
{ "type": "Feature", "properties": { "name": "Saltboden, Landsort", "lat": 58.744271, "lon": 17.865339, "image": "http://commons.wikimedia.org/wiki/Special:FilePath/SAT%20Landsort%2003.jpg", "image_thumb": null, "qid": "Q134306927", "website": "https://www.landsort.com/saltboden/" }, "geometry": { "type": "Point", "coordinates": [ 17.865339, 58.744271 ] } },
{ "type": "Feature", "properties": { "name": "Landsort norra hamn", "lat": 58.768834, "lon": 17.85839, "image": "http://commons.wikimedia.org/wiki/Special:FilePath/Landsort%20Norrhamnen%20b%C3%A5tarna.jpg", "image_thumb": null, "qid": "Q134307047", "website": null }, "geometry": { "type": "Point", "coordinates": [ 17.85839, 58.768834 ] } },
{ "type": "Feature", "properties": { "name": "Grinda Lanthandel och Cafe", "lat": 59.413108962000003, "lon": 18.559233199000001, "image": "http://commons.wikimedia.org/wiki/Special:FilePath/Grinda%2020250825%20vandring%2006.jpg", "image_thumb": null, "qid": "Q134310117", "website": "https://grinda.se/mat-fest/lanthandel-cafe/" }, "geometry": { "type": "Point", "coordinates": [ 18.559233199, 59.413108962 ] } },
{ "type": "Feature", "properties": { "name": "Södra Grinda brygga", "lat": 59.407444, "lon": 18.553158, "image": "http://commons.wikimedia.org/wiki/Special:FilePath/SAT%20Grinda%2034%20b%C3%A5ten%20vid%20S%C3%B6dra%20Bryggan.jpg", "image_thumb": null, "qid": "Q134310449", "website": null }, "geometry": { "type": "Point", "coordinates": [ 18.553158, 59.407444 ] } },
{ "type": "Feature", "properties": { "name": "Nåttarö handelsbod", "lat": 58.879549, "lon": 18.11209, "image": "http://commons.wikimedia.org/wiki/Special:FilePath/N%C3%A5ttar%C3%B6%20handelsbod.jpg", "image_thumb": null, "qid": "Q134311495", "website": "https://www.nattaroboden.se/" }, "geometry": { "type": "Point", "coordinates": [ 18.11209, 58.879549 ] } },
{ "type": "Feature", "properties": { "name": "Livsmedelbutiken på Nämdö Solvik", "lat": 59.1852269, "lon": 18.7004888, "image": "http://commons.wikimedia.org/wiki/Special:FilePath/SAT%20N%C3%A4md%C3%B6%20vandring%20aff%C3%A4ren%20handlaren.jpg", "image_thumb": null, "qid": "Q134311548", "website": "https://www.namdosolvik.com/" }, "geometry": { "type": "Point", "coordinates": [ 18.7004888, 59.1852269 ] } },
{ "type": "Feature", "properties": { "name": "Runmarö lanthandel", "lat": 59.278984, "lon": 18.735844, "image": "http://commons.wikimedia.org/wiki/Special:FilePath/SAT%20Runmar%C3%B6%20vandring%201%20april%2001.jpg", "image_thumb": null, "qid": "Q134311974", "website": "https://www.runmarolanthandel.se/" }, "geometry": { "type": "Point", "coordinates": [ 18.735844, 59.278984 ] } },
{ "type": "Feature", "properties": { "name": "Utö livs", "lat": 58.969297, "lon": 18.322073, "image": "http://commons.wikimedia.org/wiki/Special:FilePath/SAT%20Ut%C3%B6%202025%20april%2029.jpg", "image_thumb": null, "qid": "Q134312278", "website": "https://www.ica.se/butiker/nara/haninge/uto-livs-1003851/" }, "geometry": { "type": "Point", "coordinates": [ 18.322073, 58.969297 ] } },
{ "type": "Feature", "properties": { "name": "Lidö tältplats", "lat": 59.779083, "lon": 19.091919, "image": "http://commons.wikimedia.org/wiki/Special:FilePath/SAT%20Lid%C3%B6%20%28242%29.jpg", "image_thumb": null, "qid": "Q134366690", "website": "https://lidovardshus.com/gsthamnen" }, "geometry": { "type": "Point", "coordinates": [ 19.091919, 59.779083 ] } },
{ "type": "Feature", "properties": { "name": "Arholma tältplats", "lat": 59.8534199, "lon": 19.1127134, "image": "http://commons.wikimedia.org/wiki/Special:FilePath/SAT%20etapp%20Arholma%2007%20skylt%20t%C3%A4ltplats.jpg", "image_thumb": null, "qid": "Q134366761", "website": "https://www.explorearchipelago.com/sv/sthlm/norra-skargarden/arholma/taltplats" }, "geometry": { "type": "Point", "coordinates": [ 19.1127134, 59.8534199 ] } },
{ "type": "Feature", "properties": { "name": "Utö tältplats", "lat": 58.967156, "lon": 18.317932, "image": "http://commons.wikimedia.org/wiki/Special:FilePath/SAT%20Ut%C3%B6%202025%20april%2038.jpg", "image_thumb": null, "qid": "Q134366886", "website": null }, "geometry": { "type": "Point", "coordinates": [ 18.317932, 58.967156 ] } },
{ "type": "Feature", "properties": { "name": "Norra Svartsö brygga", "lat": 59.458856, "lon": 18.676735, "image": "http://commons.wikimedia.org/wiki/Special:FilePath/Norra%20Svarts%C3%B6%20brygga%2002.jpg", "image_thumb": null, "qid": "Q134367350", "website": null }, "geometry": { "type": "Point", "coordinates": [ 18.676735, 59.458856 ] } },
{ "type": "Feature", "properties": { "name": "Grinda tältplats", "lat": 59.417164, "lon": 18.557367, "image": "http://commons.wikimedia.org/wiki/Special:FilePath/SAT%20Grinda%2018%20Grinda%20Camping.jpg", "image_thumb": null, "qid": "Q134369418", "website": "https://grinda.se/boende/camping" }, "geometry": { "type": "Point", "coordinates": [ 18.557367, 59.417164 ] } },
{ "type": "Feature", "properties": { "name": "Långviks brygga", "lat": 59.296399, "lon": 18.771917, "image": "http://commons.wikimedia.org/wiki/Special:FilePath/SAT%20Runmar%C3%B6%20vandring%20april%202025%2003.jpg", "image_thumb": null, "qid": "Q134369594", "website": null }, "geometry": { "type": "Point", "coordinates": [ 18.771917, 59.296399 ] } },
{ "type": "Feature", "properties": { "name": "Nämdö tältplats", "lat": 59.200369, "lon": 18.704308, "image": "http://commons.wikimedia.org/wiki/Special:FilePath/SAT%20N%C3%A4md%C3%B6%20b%2016.jpg", "image_thumb": null, "qid": "Q134369828", "website": "https://www.explorearchipelago.com/sv/sthlm/mellersta-skargarden/namdo" }, "geometry": { "type": "Point", "coordinates": [ 18.704308, 59.200369 ] } },
{ "type": "Feature", "properties": { "name": "Köpmanholm brygga", "lat": 59.659469, "lon": 18.932772, "image": "http://commons.wikimedia.org/wiki/Special:FilePath/SAT%20Yxlan%20bussh%C3%A5llplats%20K%C3%B6pmanholm.jpg", "image_thumb": null, "qid": "Q134369914", "website": null }, "geometry": { "type": "Point", "coordinates": [ 18.932772, 59.659469 ] } },
{ "type": "Feature", "properties": { "name": "Sandhamn brygga", "lat": 59.288453, "lon": 18.915581, "image": "http://commons.wikimedia.org/wiki/Special:FilePath/Sandhamns%20brygga%202025%20juli.jpg", "image_thumb": null, "qid": "Q134370050", "website": null }, "geometry": { "type": "Point", "coordinates": [ 18.915581, 59.288453 ] } },
{ "type": "Feature", "properties": { "name": "Yxlö brygga grillplats", "lat": 59.632099, "lon": 18.864058, "image": "http://commons.wikimedia.org/wiki/Special:FilePath/Grillplats%20Yxl%C3%B6%20brygga.jpg", "image_thumb": null, "qid": "Q134373707", "website": null }, "geometry": { "type": "Point", "coordinates": [ 18.864058, 59.632099 ] } },
{ "type": "Feature", "properties": { "name": "Hamnvikens badplats", "lat": 59.609646, "lon": 18.828615, "image": "http://commons.wikimedia.org/wiki/Special:FilePath/SAT%20Yxlan%202025%20maj%205%20-%20Hamnciken%20badplats.jpg", "image_thumb": null, "qid": "Q134380404", "website": null }, "geometry": { "type": "Point", "coordinates": [ 18.828615, 59.609646 ] } },
{ "type": "Feature", "properties": { "name": "Utö gula villan", "lat": 58.954399, "lon": 18.283405, "image": "http://commons.wikimedia.org/wiki/Special:FilePath/SAT%20%C3%85l%C3%B6%20vandring%202025%20april%20Gula%20Villan%20Ut%C3%B6.jpg", "image_thumb": null, "qid": "Q134442339", "website": "https://www.uto.se/vandrarhem" }, "geometry": { "type": "Point", "coordinates": [ 18.283405, 58.954399 ] } },
{ "type": "Feature", "properties": { "name": "Norrö brygga", "lat": 58.905081, "lon": 18.149854, "image": "http://commons.wikimedia.org/wiki/Special:FilePath/SAT%20R%C3%A5n%C3%B6%20vandring%202025%20april%2005.jpg", "image_thumb": null, "qid": "Q134442663", "website": null }, "geometry": { "type": "Point", "coordinates": [ 18.149854, 58.905081 ] } },
{ "type": "Feature", "properties": { "name": "Norra Grinda brygga", "lat": 59.419171, "lon": 18.558687, "image": null, "image_thumb": null, "qid": "Q134442879", "website": null }, "geometry": { "type": "Point", "coordinates": [ 18.558687, 59.419171 ] } },
{ "type": "Feature", "properties": { "name": "Utö bykrog", "lat": 58.954661, "lon": 18.282822, "image": "http://commons.wikimedia.org/wiki/Special:FilePath/SAT%20%C3%85l%C3%B6%20vandring%202025%20april%2097%20Ut%C3%B6%20Bykrog.jpg", "image_thumb": null, "qid": "Q134443436", "website": null }, "geometry": { "type": "Point", "coordinates": [ 18.282822, 58.954661 ] } },
{ "type": "Feature", "properties": { "name": "Källarstugan, Arholma", "lat": 59.85128949, "lon": 19.108300426, "image": "http://commons.wikimedia.org/wiki/Special:FilePath/Arholma%20Handel%20August%202018%2002.jpg", "image_thumb": null, "qid": "Q134443760", "website": "https://www.arholma.nu/hitta-boende/kallarstugan" }, "geometry": { "type": "Point", "coordinates": [ 19.108300426, 59.85128949 ] } },
{ "type": "Feature", "properties": { "name": "Österhamns pensionat", "lat": 59.846147121000001, "lon": 19.119137898999998, "image": null, "image_thumb": null, "qid": "Q134444030", "website": null }, "geometry": { "type": "Point", "coordinates": [ 19.119137899, 59.846147121 ] } },
{ "type": "Feature", "properties": { "name": "Finnhamn brygga", "lat": 59.482837, "lon": 18.826752, "image": "http://commons.wikimedia.org/wiki/Special:FilePath/SAT%20Finnhamn%20bryggan%20Vax%C3%B6%20%281%29.jpg", "image_thumb": null, "qid": "Q134444768", "website": null }, "geometry": { "type": "Point", "coordinates": [ 18.826752, 59.482837 ] } },
{ "type": "Feature", "properties": { "name": "Nya Dannekrogen", "lat": 58.969188, "lon": 18.322626, "image": "http://commons.wikimedia.org/wiki/Special:FilePath/SAT%20Ut%C3%B6%202025%20maj%20%284%29%20Dannekrogen.jpg", "image_thumb": null, "qid": "Q134444827", "website": "https://www.nyadannekrogen.se/" }, "geometry": { "type": "Point", "coordinates": [ 18.322626, 58.969188 ] } },
{ "type": "Feature", "properties": { "name": "Aktiv Skärgård Utö", "lat": 58.970092, "lon": 18.327947, "image": "http://commons.wikimedia.org/wiki/Special:FilePath/Stockholms%20vackra%20sk%C3%A4rg%C3%A5rd.jpg", "image_thumb": null, "qid": "Q134445091", "website": null }, "geometry": { "type": "Point", "coordinates": [ 18.327947, 58.970092 ] } },
{ "type": "Feature", "properties": { "name": "Möja Coop", "lat": 59.40668, "lon": 18.88691, "image": "http://commons.wikimedia.org/wiki/Special:FilePath/Coop%20Berg.jpg", "image_thumb": null, "qid": "Q134451025", "website": "https://konsummoja.se/" }, "geometry": { "type": "Point", "coordinates": [ 18.88691, 59.40668 ] } },
{ "type": "Feature", "properties": { "name": "Rånö tältplats", "lat": 58.927366, "lon": 18.190809, "image": "http://commons.wikimedia.org/wiki/Special:FilePath/SAT%20R%C3%A5n%C3%B6%20vandring%202025%20april%202%2018.jpg", "image_thumb": null, "qid": "Q134452061", "website": "https://www.visitskargarden.se/boende/camping/raanoe-camping.aspx" }, "geometry": { "type": "Point", "coordinates": [ 18.190809, 58.927366 ] } },
{ "type": "Feature", "properties": { "name": "Idholmens gårdsbutik", "lat": 59.483248, "lon": 18.815476, "image": "http://commons.wikimedia.org/wiki/Special:FilePath/SAT%20Finnhamn%20Idholmen%20bondg%C3%A5rden%20%281%29.jpg", "image_thumb": null, "qid": "Q134452244", "website": null }, "geometry": { "type": "Point", "coordinates": [ 18.815476, 59.483248 ] } },
{ "type": "Feature", "properties": { "name": "Idholmens badplats", "lat": 59.483007, "lon": 18.80778, "image": "http://commons.wikimedia.org/wiki/Special:FilePath/Finnhamn%20Idholmen%20grillplats%20enkel.jpg", "image_thumb": null, "qid": "Q134452251", "website": null }, "geometry": { "type": "Point", "coordinates": [ 18.80778, 59.483007 ] } },
{ "type": "Feature", "properties": { "name": "Idholmens grillplats", "lat": 59.482883, "lon": 18.807794, "image": "http://commons.wikimedia.org/wiki/Special:FilePath/SAT%20Finnhamn%202025%20april%20grillplats%20ny%202025.jpg", "image_thumb": null, "qid": "Q134461524", "website": null }, "geometry": { "type": "Point", "coordinates": [ 18.807794, 59.482883 ] } },
{ "type": "Feature", "properties": { "name": "Finnhamns Krog", "lat": 59.482558, "lon": 18.824934, "image": "http://commons.wikimedia.org/wiki/Special:FilePath/SAT%20Finnhamn%202025%20april%20Finnhamn%20krogen.jpg", "image_thumb": null, "qid": "Q134461930", "website": "https://bio.site/Finnhamn" }, "geometry": { "type": "Point", "coordinates": [ 18.824934, 59.482558 ] } },
{ "type": "Feature", "properties": { "name": "Finnhamns norra tältplats", "lat": 59.477636, "lon": 18.818277, "image": "http://commons.wikimedia.org/wiki/Special:FilePath/SAT%20Finnhamn%20camp%20site%2001.jpg", "image_thumb": null, "qid": "Q134462751", "website": "https://naturskatter.finnhamn.se/" }, "geometry": { "type": "Point", "coordinates": [ 18.818277, 59.477636 ] } },
{ "type": "Feature", "properties": { "name": "Finnhamn södra tältplats", "lat": 59.475619, "lon": 18.817276, "image": "http://commons.wikimedia.org/wiki/Special:FilePath/SAT%20Finnhamn%20camp%20site%20south%2006.jpg", "image_thumb": null, "qid": "Q134463083", "website": "https://naturskatter.finnhamn.se/" }, "geometry": { "type": "Point", "coordinates": [ 18.817276, 59.475619 ] } },
{ "type": "Feature", "properties": { "name": "Tempo, Sandhamn", "lat": 59.2884716, "lon": 18.9146302, "image": "http://commons.wikimedia.org/wiki/Special:FilePath/SAT%20Sandhamn%202025%20april%20Temp%20Sandhamn.jpg", "image_thumb": null, "qid": "Q134465290", "website": "https://westerbergslivs.se/" }, "geometry": { "type": "Point", "coordinates": [ 18.9146302, 59.2884716 ] } },
{ "type": "Feature", "properties": { "name": "Sandhamns värdshus", "lat": 59.289487, "lon": 18.914312, "image": "http://commons.wikimedia.org/wiki/Special:FilePath/Sandhamns%20W%C3%A4rdshus%202025%20juli.jpg", "image_thumb": null, "qid": "Q134473761", "website": "https://sandhamns-vardshus.se" }, "geometry": { "type": "Point", "coordinates": [ 18.914312, 59.289487 ] } },
{ "type": "Feature", "properties": { "name": "Landsort vandrarhemmet", "lat": 58.741192, "lon": 17.867247, "image": "http://commons.wikimedia.org/wiki/Special:FilePath/SAT%20Landsort%2053.jpg", "image_thumb": null, "qid": "Q134510130", "website": "https://www.landsortsvandrarhem.se/" }, "geometry": { "type": "Point", "coordinates": [ 17.867247, 58.741192 ] } },
{ "type": "Feature", "properties": { "name": "Landsorts lotsutkik", "lat": 59.286809, "lon": 18.912354, "image": "http://commons.wikimedia.org/wiki/Special:FilePath/Landsorts%20lotsutkik.jpg", "image_thumb": null, "qid": "Q134513852", "website": null }, "geometry": { "type": "Point", "coordinates": [ 18.912354, 59.286809 ] } },
{ "type": "Feature", "properties": { "name": "Sandhamn gamla skola", "lat": 59.287478, "lon": 18.911747, "image": "http://commons.wikimedia.org/wiki/Special:FilePath/Sandhamns%20skola%20September%202024%2001.jpg", "image_thumb": null, "qid": "Q134513890", "website": null }, "geometry": { "type": "Point", "coordinates": [ 18.911747, 59.287478 ] } },
{ "type": "Feature", "properties": { "name": "Kyrkvikens Bar & Bistro Ornö", "lat": 59.05177, "lon": 18.431652, "image": "http://commons.wikimedia.org/wiki/Special:FilePath/Kyrkvikens%20Bar%20%26%20Bistro.jpg", "image_thumb": null, "qid": "Q134693218", "website": "https://www.ornokrog.se/" }, "geometry": { "type": "Point", "coordinates": [ 18.431652, 59.05177 ] } },
{ "type": "Feature", "properties": { "name": "Finnhamn gästhamn", "lat": 59.478911, "lon": 18.812461, "image": "http://commons.wikimedia.org/wiki/Special:FilePath/202508%20Finnhamn%20SAT%2031.jpg", "image_thumb": null, "qid": "Q134704276", "website": null }, "geometry": { "type": "Point", "coordinates": [ 18.812461, 59.478911 ] } },
{ "type": "Feature", "properties": { "name": "Finnhamn stugbyn", "lat": 59.48142, "lon": 18.81217, "image": "http://commons.wikimedia.org/wiki/Special:FilePath/Finnhamn%20Idholmen%20stugbyn.jpg", "image_thumb": null, "qid": "Q134704553", "website": "https://boka.finnhamn.se/accommodation?channelId=d55489a0-d219-4d7a-8e6e-af861eb378df" }, "geometry": { "type": "Point", "coordinates": [ 18.81217, 59.48142 ] } },
{ "type": "Feature", "properties": { "name": "Lidö vindskydd", "lat": 59.7819711, "lon": 19.062199, "image": "http://commons.wikimedia.org/wiki/Special:FilePath/Lid%C3%B6%20vindkydd.jpg", "image_thumb": null, "qid": "Q134704760", "website": null }, "geometry": { "type": "Point", "coordinates": [ 19.062199, 59.7819711 ] } },
{ "type": "Feature", "properties": { "name": "Ingmarsö bageri", "lat": 59.467456574000003, "lon": 18.75717491, "image": "http://commons.wikimedia.org/wiki/Special:FilePath/Ingmars%C3%B6%20bageri.jpg", "image_thumb": null, "qid": "Q134705637", "website": "https://ingmarsobageri.com/" }, "geometry": { "type": "Point", "coordinates": [ 18.75717491, 59.467456574 ] } },
{ "type": "Feature", "properties": { "name": "Ingmarsö bageribod", "lat": 59.466261781999997, "lon": 18.753417566, "image": "http://commons.wikimedia.org/wiki/Special:FilePath/SAT%20Ingmars%C3%B6%20br%C3%B6dboden.jpg", "image_thumb": null, "qid": "Q134705659", "website": "https://ingmarsobageri.com/" }, "geometry": { "type": "Point", "coordinates": [ 18.753417566, 59.466261782 ] } },
{ "type": "Feature", "properties": { "name": "Ingmarsö Gästhamn", "lat": 59.466261781999997, "lon": 18.753417566, "image": "http://commons.wikimedia.org/wiki/Special:FilePath/SAT%20Ingmars%C3%B6%20sm%C3%A5b%C3%A5tshamnen.jpg", "image_thumb": null, "qid": "Q134705772", "website": "https://ingmarsogasthamn.se/" }, "geometry": { "type": "Point", "coordinates": [ 18.753417566, 59.466261782 ] } },
{ "type": "Feature", "properties": { "name": "Ingmarsö bread and breakfast", "lat": 59.473687972999997, "lon": 18.75484307, "image": null, "image_thumb": null, "qid": "Q134705878", "website": "https://www.ingmarsobnb.se/" }, "geometry": { "type": "Point", "coordinates": [ 18.75484307, 59.473687973 ] } },
{ "type": "Feature", "properties": { "name": "Bistro Bryggan", "lat": 59.446377, "lon": 18.695903, "image": "http://commons.wikimedia.org/wiki/Special:FilePath/SAT%20Svarts%C3%B6%202025%20april%20a%2008.jpg", "image_thumb": null, "qid": "Q134706371", "website": "https://www.bistrosagen.se/" }, "geometry": { "type": "Point", "coordinates": [ 18.695903, 59.446377 ] } },
{ "type": "Feature", "properties": { "name": "Grinda stugby", "lat": 59.406969, "lon": 18.565116, "image": "http://commons.wikimedia.org/wiki/Special:FilePath/SAT%20Grinda%2003%20stugbyn.jpg", "image_thumb": null, "qid": "Q134710931", "website": "https://grinda.se/boende/stugby/" }, "geometry": { "type": "Point", "coordinates": [ 18.565116, 59.406969 ] } },
{ "type": "Feature", "properties": { "name": "Framfickans restaurang", "lat": 59.413985, "lon": 18.556654, "image": "http://commons.wikimedia.org/wiki/Special:FilePath/Grinda%2C%2020160528%2C%2005.jpg", "image_thumb": null, "qid": "Q134711795", "website": "https://grinda.se/mat-fest/framfickan/" }, "geometry": { "type": "Point", "coordinates": [ 18.556654, 59.413985 ] } },
{ "type": "Feature", "properties": { "name": "Grinda bageri", "lat": 59.413985, "lon": 18.556654, "image": "http://commons.wikimedia.org/wiki/Special:FilePath/Grinda%2C%2020160528%2C%2005.jpg", "image_thumb": null, "qid": "Q134713103", "website": "https://grinda.se/mat-fest/bageri/" }, "geometry": { "type": "Point", "coordinates": [ 18.556654, 59.413985 ] } },
{ "type": "Feature", "properties": { "name": "Möja gästhamn kyrkviken", "lat": 59.406021, "lon": 18.883862, "image": "http://commons.wikimedia.org/wiki/Special:FilePath/DIMG%205656%20%284735631996%29.jpg", "image_thumb": null, "qid": "Q134713455", "website": "https://visitmoja.se/g%C3%A4sthamnar/" }, "geometry": { "type": "Point", "coordinates": [ 18.883862, 59.406021 ] } },
{ "type": "Feature", "properties": { "name": "Les Poissonniers", "lat": 59.407072, "lon": 18.885621, "image": "http://commons.wikimedia.org/wiki/Special:FilePath/SAT%20M%C3%B6ja%2020250808%2006.jpg", "image_thumb": null, "qid": "Q134713663", "website": "https://mojafisk.se/" }, "geometry": { "type": "Point", "coordinates": [ 18.885621, 59.407072 ] } },
{ "type": "Feature", "properties": { "name": "Sandhamns bageri", "lat": 59.28973808, "lon": 18.914155064, "image": "http://commons.wikimedia.org/wiki/Special:FilePath/Sandhamns%20bageri.jpg", "image_thumb": null, "qid": "Q134713953", "website": "https://sandhamnsbageriet.com/" }, "geometry": { "type": "Point", "coordinates": [ 18.914155064, 59.28973808 ] } },
{ "type": "Feature", "properties": { "name": "Finnhamn tältplats dricksvatten", "lat": 59.476458, "lon": 18.817317, "image": "http://commons.wikimedia.org/wiki/Special:FilePath/SAT%20Finnhamn%20camp%20site%20water%2002.jpg", "image_thumb": null, "qid": "Q134717333", "website": null }, "geometry": { "type": "Point", "coordinates": [ 18.817317, 59.476458 ] } },
{ "type": "Feature", "properties": { "name": "Lanthandeln dricksvatten", "lat": 59.482742, "lon": 18.824092, "image": "http://commons.wikimedia.org/wiki/Special:FilePath/SAT%20Finnhamn%20vattenkran.jpg", "image_thumb": null, "qid": "Q134717347", "website": null }, "geometry": { "type": "Point", "coordinates": [ 18.824092, 59.482742 ] } },
{ "type": "Feature", "properties": { "name": "Finnhamn stugbyn dricksvatten", "lat": 59.4816388, "lon": 18.8124063, "image": "http://commons.wikimedia.org/wiki/Special:FilePath/SAT%20Finnhamn%20Idholmen%20vattenkran%20stugbyn%20-%20avst%C3%A4ngd.jpg", "image_thumb": null, "qid": "Q134717362", "website": null }, "geometry": { "type": "Point", "coordinates": [ 18.8124063, 59.4816388 ] } },
{ "type": "Feature", "properties": { "name": "Hamn", "lat": 59.42827, "lon": 18.85436, "image": "http://commons.wikimedia.org/wiki/Special:FilePath/M%C3%B6ja%20-%20KMB%20-%2016001000455984.jpg", "image_thumb": null, "qid": "Q134720366", "website": null }, "geometry": { "type": "Point", "coordinates": [ 18.85436, 59.42827 ] } },
{ "type": "Feature", "properties": { "name": "Lidö gästhamn Båthusviken", "lat": 59.7733, "lon": 19.07784, "image": "http://commons.wikimedia.org/wiki/Special:FilePath/SAT%20Lid%C3%B6%20%2810%29.jpg", "image_thumb": null, "qid": "Q134721278", "website": "https://lidovardshus.com/gsthamnen" }, "geometry": { "type": "Point", "coordinates": [ 19.07784, 59.7733 ] } },
{ "type": "Feature", "properties": { "name": "Lidö naturhamn, grillplats", "lat": 59.7767135, "lon": 19.0870375, "image": null, "image_thumb": null, "qid": "Q134721309", "website": "https://www.explorearchipelago.com/sv/sthlm/norra-skargarden/lido" }, "geometry": { "type": "Point", "coordinates": [ 19.0870375, 59.7767135 ] } },
{ "type": "Feature", "properties": { "name": "Lidö naturhamn", "lat": 59.776985, "lon": 19.08918, "image": "http://commons.wikimedia.org/wiki/Special:FilePath/SAT%20Lid%C3%B6%20%28204%29.jpg", "image_thumb": null, "qid": "Q134721339", "website": null }, "geometry": { "type": "Point", "coordinates": [ 19.08918, 59.776985 ] } },
{ "type": "Feature", "properties": { "name": "Lidö gård", "lat": 59.77482, "lon": 19.082061, "image": null, "image_thumb": null, "qid": "Q134721456", "website": null }, "geometry": { "type": "Point", "coordinates": [ 19.082061, 59.77482 ] } },
{ "type": "Feature", "properties": { "name": "Lidö naturinformation", "lat": 59.773236, "lon": 19.079175, "image": "http://commons.wikimedia.org/wiki/Special:FilePath/SAT%20Lid%C3%B6%20%287%29.jpg", "image_thumb": null, "qid": "Q134721463", "website": null }, "geometry": { "type": "Point", "coordinates": [ 19.079175, 59.773236 ] } },
{ "type": "Feature", "properties": { "name": "Nämdö Skärgårdsmuseum dricksvatten", "lat": 59.182152, "lon": 18.688602, "image": "http://commons.wikimedia.org/wiki/Special:FilePath/Sk%C3%A4rg%C3%A5rdsmuseet%20dricksvatten.jpg", "image_thumb": null, "qid": "Q134726978", "website": null }, "geometry": { "type": "Point", "coordinates": [ 18.688602, 59.182152 ] } },
{ "type": "Feature", "properties": { "name": "Nämdö tältplats dricksvatten", "lat": 59.199897, "lon": 18.708, "image": "http://commons.wikimedia.org/wiki/Special:FilePath/SAT%20N%C3%A4md%C3%B6%20b%2012.jpg", "image_thumb": null, "qid": "Q134726995", "website": null }, "geometry": { "type": "Point", "coordinates": [ 18.708, 59.199897 ] } },
{ "type": "Feature", "properties": { "name": "Lidö Ryssugn", "lat": 59.781475, "lon": 19.068792, "image": "http://commons.wikimedia.org/wiki/Special:FilePath/Lid%C3%B6%20naturreservat%2017%2000%2025%20960000.jpeg", "image_thumb": null, "qid": "Q134727614", "website": "https://app.raa.se/open/fornsok/lamning/1f040b40-1fce-4e37-b078-e8ae9121818b" }, "geometry": { "type": "Point", "coordinates": [ 19.068792, 59.781475 ] } },
{ "type": "Feature", "properties": { "name": "minkfarm, Lidö", "lat": 59.78115, "lon": 19.08162, "image": "http://commons.wikimedia.org/wiki/Special:FilePath/JvmKCAC14583.jpg", "image_thumb": null, "qid": "Q134727664", "website": null }, "geometry": { "type": "Point", "coordinates": [ 19.08162, 59.78115 ] } },
{ "type": "Feature", "properties": { "name": "Cykeluthyrning Kyrkviken Ornö", "lat": 59.052095, "lon": 18.43276, "image": "http://commons.wikimedia.org/wiki/Special:FilePath/Orn%C3%B6%20kyrka%20Ferry%20stop%2003.jpg", "image_thumb": null, "qid": "Q134727862", "website": "https://www.haninge.se/uppleva-och-gora/besok-och-upplev-haninge/platser-att-besoka/orno/" }, "geometry": { "type": "Point", "coordinates": [ 18.43276, 59.052095 ] } },
{ "type": "Feature", "properties": { "name": "Furusunds hamnkrog", "lat": 59.661176978999997, "lon": 18.917288301, "image": "http://commons.wikimedia.org/wiki/Special:FilePath/Furusunds%20Hamnkrog%20och%20g%C3%A4sthamn%202025%20april.jpg", "image_thumb": null, "qid": "Q134734528", "website": "https://furusundshamnkrog.se/" }, "geometry": { "type": "Point", "coordinates": [ 18.917288301, 59.661176979 ] } },
{ "type": "Feature", "properties": { "name": "Jungfruringen", "lat": 59.661582, "lon": 18.934046, "image": "http://commons.wikimedia.org/wiki/Special:FilePath/LD2000-0293.jpg", "image_thumb": null, "qid": "Q134737023", "website": "https://app.raa.se/open/fornsok/lamning/0a28d8d8-29d2-48d0-80fc-1e05b881adc2" }, "geometry": { "type": "Point", "coordinates": [ 18.934046, 59.661582 ] } },
{ "type": "Feature", "properties": { "name": "Östermarsfladen naturhamn", "lat": 58.888353, "lon": 18.138074, "image": "http://commons.wikimedia.org/wiki/Special:FilePath/Norra%20N%C3%A5ttar%C3%B6%2020250801%2004%20narurhamn.jpg", "image_thumb": null, "qid": "Q134762489", "website": "https://www.lansstyrelsen.se/download/18.1b1d393819324610c37490fd/1732516882168/N%C3%A5ttar%C3%B6%20-%20naturreservat%20i%20Stockholms%20l%C3%A4n.pdf" }, "geometry": { "type": "Point", "coordinates": [ 18.138074, 58.888353 ] } },
{ "type": "Feature", "properties": { "name": "Landsort Norrhamn", "lat": 58.768708, "lon": 17.858952, "image": "http://commons.wikimedia.org/wiki/Special:FilePath/Landsort%20Norrhamnen.jpg", "image_thumb": null, "qid": "Q134776030", "website": "https://visitlandsort.se/slappna-av-ma-bra/bo/landsorts-gasthamn-med-egen-bat/" }, "geometry": { "type": "Point", "coordinates": [ 17.858952, 58.768708 ] } },
{ "type": "Feature", "properties": { "name": "Sixtens Bodega", "lat": 58.881102, "lon": 18.112528, "image": "http://commons.wikimedia.org/wiki/Special:FilePath/N%C3%A5ttar%C3%B6%20visit%2020250731%2005.jpg", "image_thumb": null, "qid": "Q134776113", "website": "https://nattaro.se/mat_pa_on/sixtens-bodega/" }, "geometry": { "type": "Point", "coordinates": [ 18.112528, 58.881102 ] } },
{ "type": "Feature", "properties": { "name": "Nåttarö nya gästhamn", "lat": 58.881222221999998, "lon": 18.109833333000001, "image": "http://commons.wikimedia.org/wiki/Special:FilePath/SATN%C3%A5ttar%C3%B6%202025%20april%20%281%29.jpg", "image_thumb": null, "qid": "Q134776776", "website": "https://nattaro.se/gasthamn/" }, "geometry": { "type": "Point", "coordinates": [ 18.109833333, 58.881222222 ] } },
{ "type": "Feature", "properties": { "name": "Nåttarö krog", "lat": 58.880849, "lon": 18.11251, "image": "http://commons.wikimedia.org/wiki/Special:FilePath/SATN%C3%A5ttar%C3%B6%202025%20april%20%28264%29%20krogen.jpg", "image_thumb": null, "qid": "Q134776972", "website": "https://nattaro.se/mat_pa_on/nattaro-krog/" }, "geometry": { "type": "Point", "coordinates": [ 18.11251, 58.880849 ] } },
{ "type": "Feature", "properties": { "name": "Nåttarö krog", "lat": 58.880849, "lon": 18.11251, "image": "http://commons.wikimedia.org/wiki/Special:FilePath/SATN%C3%A5ttar%C3%B6%202025%20april%20%28264%29%20krogen.jpg", "image_thumb": null, "qid": "Q134776972", "website": "https://nattaro.se/mat_pa_on/sixtens-bodega/" }, "geometry": { "type": "Point", "coordinates": [ 18.11251, 58.880849 ] } },
{ "type": "Feature", "properties": { "name": "Ålö gård", "lat": 58.925277776999998, "lon": 18.208638888, "image": null, "image_thumb": null, "qid": "Q134777160", "website": null }, "geometry": { "type": "Point", "coordinates": [ 18.208638888, 58.925277777 ] } },
{ "type": "Feature", "properties": { "name": "Nåttarö bryggkiosk", "lat": 58.880618, "lon": 18.111155, "image": null, "image_thumb": null, "qid": "Q134777419", "website": "https://www.nattaroboden.se/hem/bryggkiosken/" }, "geometry": { "type": "Point", "coordinates": [ 18.111155, 58.880618 ] } },
{ "type": "Feature", "properties": { "name": "Långviksgruvan", "lat": 59.059723, "lon": 18.427892, "image": "http://commons.wikimedia.org/wiki/Special:FilePath/SAT%20Orn%C3%B6%202025%20maj%20%2831%29.jpg", "image_thumb": null, "qid": "Q134837898", "website": null }, "geometry": { "type": "Point", "coordinates": [ 18.427892, 59.059723 ] } },
{ "type": "Feature", "properties": { "name": "Åvassa", "lat": 59.073021, "lon": 18.464175, "image": null, "image_thumb": null, "qid": "Q134838070", "website": null }, "geometry": { "type": "Point", "coordinates": [ 18.464175, 59.073021 ] } },
{ "type": "Feature", "properties": { "name": "Fiversättra", "lat": 59.083971, "lon": 18.475701, "image": null, "image_thumb": null, "qid": "Q134838210", "website": null }, "geometry": { "type": "Point", "coordinates": [ 18.475701, 59.083971 ] } },
{ "type": "Feature", "properties": { "name": "Ornö badplats, Kyrkviken", "lat": 59.055193597, "lon": 18.436481019, "image": null, "image_thumb": null, "qid": "Q134839262", "website": null }, "geometry": { "type": "Point", "coordinates": [ 18.436481019, 59.055193597 ] } },
{ "type": "Feature", "properties": { "name": "Sandvik båtmanstorp", "lat": 59.06396, "lon": 18.45653, "image": null, "image_thumb": null, "qid": "Q134869532", "website": null }, "geometry": { "type": "Point", "coordinates": [ 18.45653, 59.06396 ] } },
{ "type": "Feature", "properties": { "name": "Utö cykelboden", "lat": 58.970072, "lon": 18.323908, "image": "http://commons.wikimedia.org/wiki/Special:FilePath/SAT%20Ut%C3%B6%20202508%2004.jpg", "image_thumb": null, "qid": "Q134872014", "website": "https://www.uto.se/cykel" }, "geometry": { "type": "Point", "coordinates": [ 18.323908, 58.970072 ] } },
{ "type": "Feature", "properties": { "name": "Utö gästhamn", "lat": 58.970289, "lon": 18.325582, "image": "http://commons.wikimedia.org/wiki/Special:FilePath/SAT%20Ut%C3%B6%20202508%2001.jpg", "image_thumb": null, "qid": "Q134873163", "website": "https://www.utogasthamn.se/gasthamnen/" }, "geometry": { "type": "Point", "coordinates": [ 18.325582, 58.970289 ] } },
{ "type": "Feature", "properties": { "name": "Ornö elpodtaxi", "lat": 59.051835, "lon": 18.432635, "image": null, "image_thumb": null, "qid": "Q134877297", "website": "https://www.ornoturism.se/476-2/" }, "geometry": { "type": "Point", "coordinates": [ 18.432635, 59.051835 ] } },
{ "type": "Feature", "properties": { "name": "Utö Bakgård", "lat": 58.969406, "lon": 18.322687, "image": "http://commons.wikimedia.org/wiki/Special:FilePath/SAT%20Ut%C3%B6%202025%20april%2028.jpg", "image_thumb": null, "qid": "Q134879510", "website": "https://www.uto.se/bageri/" }, "geometry": { "type": "Point", "coordinates": [ 18.322687, 58.969406 ] } },
{ "type": "Feature", "properties": { "name": "Nämdö Hembygdsgård", "lat": 59.183098180999998, "lon": 18.686757714, "image": null, "image_thumb": null, "qid": "Q134879651", "website": "https://www.xn--nmdhbf-bua0m.se/" }, "geometry": { "type": "Point", "coordinates": [ 18.686757714, 59.183098181 ] } },
{ "type": "Feature", "properties": { "name": "Hammerska ladan", "lat": 59.664046356, "lon": 18.913869177, "image": "http://commons.wikimedia.org/wiki/Special:FilePath/Hammerska%20ladan.jpg", "image_thumb": null, "qid": "Q134881286", "website": "https://hammerskaladan.se/" }, "geometry": { "type": "Point", "coordinates": [ 18.913869177, 59.664046356 ] } },
{ "type": "Feature", "properties": { "name": "Norrötorpet", "lat": 59.055027844999998, "lon": 18.516675603, "image": "http://commons.wikimedia.org/wiki/Special:FilePath/Fjardlang%20P9230090%20%2852103910%29.jpg", "image_thumb": null, "qid": "Q134889150", "website": "https://www.explorearchipelago.com/sv/sthlm/sodra-skargarden/fjardlang/norrotorpet" }, "geometry": { "type": "Point", "coordinates": [ 18.516675603, 59.055027845 ] } },
{ "type": "Feature", "properties": { "name": "Fjärdlång, Sjunkviken naturhamn", "lat": 59.053155282, "lon": 18.530027504, "image": null, "image_thumb": null, "qid": "Q134889482", "website": "https://www.explorearchipelago.com/sv/sthlm/sodra-skargarden/fjardlang" }, "geometry": { "type": "Point", "coordinates": [ 18.530027504, 59.053155282 ] } },
{ "type": "Feature", "properties": { "name": "Fjärdlång, Mörkviken naturhamn", "lat": 59.048822682000001, "lon": 18.520656434, "image": "http://commons.wikimedia.org/wiki/Special:FilePath/SAT%20Fj%C3%A4rdl%C3%A5ng%202025%20april%20%28207%29.jpg", "image_thumb": null, "qid": "Q134889616", "website": "https://www.explorearchipelago.com/sv/sthlm/sodra-skargarden/fjardlang" }, "geometry": { "type": "Point", "coordinates": [ 18.520656434, 59.048822682 ] } },
{ "type": "Feature", "properties": { "name": "Fjärdlång, Rumpudden naturhamn", "lat": 59.057996185, "lon": 18.537676304000001, "image": null, "image_thumb": null, "qid": "Q134889668", "website": "https://www.explorearchipelago.com/sv/sthlm/sodra-skargarden/fjardlang" }, "geometry": { "type": "Point", "coordinates": [ 18.537676304, 59.057996185 ] } },
{ "type": "Feature", "properties": { "name": "Fjärdlång, Vedviken naturhamn", "lat": 59.044618341000003, "lon": 18.512142570999998, "image": null, "image_thumb": null, "qid": "Q134889890", "website": "https://www.explorearchipelago.com/sv/sthlm/sodra-skargarden/fjardlang" }, "geometry": { "type": "Point", "coordinates": [ 18.512142571, 59.044618341 ] } },
{ "type": "Feature", "properties": { "name": "Fjärdlång, gästhamn", "lat": 59.035503017000003, "lon": 18.512055426, "image": null, "image_thumb": null, "qid": "Q134889928", "website": "https://www.explorearchipelago.com/sv/sthlm/sodra-skargarden/fjardlang" }, "geometry": { "type": "Point", "coordinates": [ 18.512055426, 59.035503017 ] } },
{ "type": "Feature", "properties": { "name": "Strömkajen", "lat": 59.328887041999998, "lon": 18.076130504000002, "image": "http://commons.wikimedia.org/wiki/Special:FilePath/B%C3%A5tar%20vid%20Str%C3%B6mkajen%2C%2020220923.jpg", "image_thumb": null, "qid": "Q134891991", "website": null }, "geometry": { "type": "Point", "coordinates": [ 18.076130504, 59.328887042 ] } },
{ "type": "Feature", "properties": { "name": "Bryggans lilla kök", "lat": 58.970413973, "lon": 18.327448289, "image": "http://commons.wikimedia.org/wiki/Special:FilePath/SAT%20Ut%C3%B6%20vandring%2020250806%20107.jpg", "image_thumb": null, "qid": "Q134895185", "website": "https://www.brygganscafe.se/" }, "geometry": { "type": "Point", "coordinates": [ 18.327448289, 58.970413973 ] } },
{ "type": "Feature", "properties": { "name": "Lilla Haket & Ninas Bod", "lat": 58.9698574, "lon": 18.324714812, "image": "http://commons.wikimedia.org/wiki/Special:FilePath/SAT%20Ut%C3%B6%202025%20april%2005.jpg", "image_thumb": null, "qid": "Q134895563", "website": "https://batshaket.se/" }, "geometry": { "type": "Point", "coordinates": [ 18.324714812, 58.9698574 ] } },
{ "type": "Feature", "properties": { "name": "Österhamn badplats", "lat": 59.7785915, "lon": 19.091604, "image": "http://commons.wikimedia.org/wiki/Special:FilePath/SAT%20Lid%C3%B6%20mindre%20sandstrand.jpg", "image_thumb": null, "qid": "Q134953620", "website": null }, "geometry": { "type": "Point", "coordinates": [ 19.091604, 59.7785915 ] } },
{ "type": "Feature", "properties": { "name": "Landsorts kapells klockstapel", "lat": 58.744917, "lon": 17.866067, "image": "http://commons.wikimedia.org/wiki/Special:FilePath/Landsorts%20kapell%20klockstapel.jpg", "image_thumb": null, "qid": "Q134983588", "website": null }, "geometry": { "type": "Point", "coordinates": [ 17.866067, 58.744917 ] } },
{ "type": "Feature", "properties": { "name": "Ålö brygga dricksvatten", "lat": 58.920253, "lon": 18.195122, "image": "http://commons.wikimedia.org/wiki/Special:FilePath/SAT%20%C3%85l%C3%B6%20vandring%202025%20april%2005%20vattenpump.jpg", "image_thumb": null, "qid": "Q134985579", "website": null }, "geometry": { "type": "Point", "coordinates": [ 18.195122, 58.920253 ] } },
{ "type": "Feature", "properties": { "name": "Rånö dricksvattenpump vid tältplatsen", "lat": 58.927381, "lon": 18.189722, "image": "http://commons.wikimedia.org/wiki/Special:FilePath/SAT%20R%C3%A5n%C3%B6%20vattenpump%20vid%20t%C3%A4ltplatsen.jpg", "image_thumb": null, "qid": "Q134985660", "website": null }, "geometry": { "type": "Point", "coordinates": [ 18.189722, 58.927381 ] } },
{ "type": "Feature", "properties": { "name": "västra hamnen dricksvatten,  Landsort", "lat": 58.744676, "lon": 17.865062, "image": "http://commons.wikimedia.org/wiki/Special:FilePath/SAT%20Landsort%2052.jpg", "image_thumb": null, "qid": "Q134985757", "website": null }, "geometry": { "type": "Point", "coordinates": [ 17.865062, 58.744676 ] } },
{ "type": "Feature", "properties": { "name": "norra hamnen dricksvatten,  Landsort", "lat": 58.768859, "lon": 17.857649, "image": "http://commons.wikimedia.org/wiki/Special:FilePath/North%20harbor%20drinking%20water%20Landsort.jpg", "image_thumb": null, "qid": "Q134986918", "website": null }, "geometry": { "type": "Point", "coordinates": [ 17.857649, 58.768859 ] } },
{ "type": "Feature", "properties": { "name": "Nåttarö nya gästhamnen dricksvatten", "lat": 58.881072, "lon": 18.110742, "image": "http://commons.wikimedia.org/wiki/Special:FilePath/SATN%C3%A5ttar%C3%B6%202025%20april%20dricksvatten%20vid%20bryggan.jpg", "image_thumb": null, "qid": "Q134987098", "website": null }, "geometry": { "type": "Point", "coordinates": [ 18.110742, 58.881072 ] } },
{ "type": "Feature", "properties": { "name": "Nåttarö nya gästhamnen dricksvatten", "lat": 58.881072, "lon": 18.110742, "image": "http://commons.wikimedia.org/wiki/Special:FilePath/SATN%C3%A5ttar%C3%B6%202025%20april%20dricksvatten%20vid%20bryggan.jpg", "image_thumb": null, "qid": "Q134987117", "website": null }, "geometry": { "type": "Point", "coordinates": [ 18.110742, 58.881072 ] } },
{ "type": "Feature", "properties": { "name": "Nåttarö vandrarhem dricksvatten", "lat": 58.886509, "lon": 18.136456, "image": "http://commons.wikimedia.org/wiki/Special:FilePath/SATN%C3%A5ttar%C3%B6%202025%20april%20%28222%29%20vattenkran.jpg", "image_thumb": null, "qid": "Q134987122", "website": null }, "geometry": { "type": "Point", "coordinates": [ 18.136456, 58.886509 ] } },
{ "type": "Feature", "properties": { "name": "Svedtiljas restaurang", "lat": 58.742515, "lon": 17.866878, "image": "http://commons.wikimedia.org/wiki/Special:FilePath/Svedtilja%27s%20Pilot%20Tower.jpg", "image_thumb": null, "qid": "Q135003463", "website": "https://www.g-mo.se/restaurang-svedtiljas/" }, "geometry": { "type": "Point", "coordinates": [ 17.866878, 58.742515 ] } },
{ "type": "Feature", "properties": { "name": "Vandringsskylt SAT Landsort", "lat": 58.743978, "lon": 17.865669, "image": "http://commons.wikimedia.org/wiki/Special:FilePath/SAT%20Landsort%20skylt%2003.jpg", "image_thumb": null, "qid": "Q135010805", "website": null }, "geometry": { "type": "Point", "coordinates": [ 17.865669, 58.743978 ] } },
{ "type": "Feature", "properties": { "name": "Hjärtstarare västra hamnen Landsort", "lat": 58.744498, "lon": 17.865298, "image": "http://commons.wikimedia.org/wiki/Special:FilePath/Landsort%20AED.jpg", "image_thumb": null, "qid": "Q135010859", "website": null }, "geometry": { "type": "Point", "coordinates": [ 17.865298, 58.744498 ] } },
{ "type": "Feature", "properties": { "name": "Svedtiljas restaurang cykeluthyrning", "lat": 58.742472, "lon": 17.867036, "image": "http://commons.wikimedia.org/wiki/Special:FilePath/Cykel%20uthyrning%20Lotstornet%20Svedtilja.jpg", "image_thumb": null, "qid": "Q135011443", "website": "https://www.g-mo.se/cyklar/" }, "geometry": { "type": "Point", "coordinates": [ 17.867036, 58.742472 ] } },
{ "type": "Feature", "properties": { "name": "dricksvatten tältplatsen,  Landsort", "lat": 58.76751, "lon": 17.860406, "image": "http://commons.wikimedia.org/wiki/Special:FilePath/%C3%96ja%20campingplats%20dricksvatten%2001.jpg", "image_thumb": null, "qid": "Q135011579", "website": null }, "geometry": { "type": "Point", "coordinates": [ 17.860406, 58.76751 ] } },
{ "type": "Feature", "properties": { "name": "Landsort gästhamnen, cykeluthyrning", "lat": 58.768571, "lon": 17.856855, "image": "http://commons.wikimedia.org/wiki/Special:FilePath/Norra%20Landsort%20cyklar.jpg", "image_thumb": null, "qid": "Q135011988", "website": null }, "geometry": { "type": "Point", "coordinates": [ 17.856855, 58.768571 ] } },
{ "type": "Feature", "properties": { "name": "Landsort badplats", "lat": 58.748143, "lon": 17.868624, "image": "http://commons.wikimedia.org/wiki/Special:FilePath/SAT%20Landsort%20badplats.jpg", "image_thumb": null, "qid": "Q135012404", "website": null }, "geometry": { "type": "Point", "coordinates": [ 17.868624, 58.748143 ] } },
{ "type": "Feature", "properties": { "name": "Landsorts västra hamnen stugorna, hjärtstartare", "lat": 58.744931, "lon": 17.86466, "image": "http://commons.wikimedia.org/wiki/Special:FilePath/V%C3%A4stra%20hamnen%20hj%C3%A4rtstartare%20vid%20stugorna.jpg", "image_thumb": null, "qid": "Q135012478", "website": null }, "geometry": { "type": "Point", "coordinates": [ 17.86466, 58.744931 ] } },
{ "type": "Feature", "properties": { "name": "Sandhamn hjärtstartare tennisbana", "lat": 59.284266, "lon": 18.920096, "image": "http://commons.wikimedia.org/wiki/Special:FilePath/AED%20Sandhamn%20tennisbana.jpg", "image_thumb": null, "qid": "Q135013540", "website": null }, "geometry": { "type": "Point", "coordinates": [ 18.920096, 59.284266 ] } },
{ "type": "Feature", "properties": { "name": "Utö värdshus hjärtstartare", "lat": 58.967333, "lon": 18.329549, "image": "http://commons.wikimedia.org/wiki/Special:FilePath/Ut%C3%B6%20v%C3%A4rdshus%20AED%2002.jpg", "image_thumb": null, "qid": "Q135013563", "website": null }, "geometry": { "type": "Point", "coordinates": [ 18.329549, 58.967333 ] } },
{ "type": "Feature", "properties": { "name": "Ornö bygdegård hjärtstartare", "lat": 59.051932, "lon": 18.431682, "image": "http://commons.wikimedia.org/wiki/Special:FilePath/Orn%C3%B6%20Hembyggdsf%C3%B6rening%20AED.jpg", "image_thumb": null, "qid": "Q135013584", "website": null }, "geometry": { "type": "Point", "coordinates": [ 18.431682, 59.051932 ] } },
{ "type": "Feature", "properties": { "name": "Ornöboda hjärtstartare", "lat": 59.111188, "lon": 18.478392, "image": "http://commons.wikimedia.org/wiki/Special:FilePath/Orn%C3%B6boda%20AED%2001.jpg", "image_thumb": null, "qid": "Q135013590", "website": null }, "geometry": { "type": "Point", "coordinates": [ 18.478392, 59.111188 ] } },